{"type":"FeatureCollection","features":[{"type":"Feature","geometry":{"type":"Point","coordinates":[-79.2900327,39.96674226]},"properties":{"type":"hydrolocation","source":"nwissite","sourceName":"NWIS Surface Water Sites","identifier":"USGS-03079705","name":"Cole Run near Barronvale, PA","uri":"https://waterdata.usgs.gov/monitoring-location/03079705","comid":"3807035","reachcode":"05020006001066","measure":"0E-10","navigation":"https://api.water.usgs.gov/nldi/linked-data/nwissite/USGS-03079705/navigation"}},{"type":"Feature","geometry":{"type":"Point","coordinates":[-80.325,39.81805556]},"properties":{"type":"hydrolocation","source":"nwissite","sourceName":"NWIS Surface Water Sites","identifier":"USGS-030728552","name":"Unnamed Trib to Grinage Run near Wite Cottage, PA","uri":"https://waterdata.usgs.gov/monitoring-location/030728552","comid":"3788987","reachcode":"05020005001424","measure":"96.9633000000","navigation":"https://api.water.usgs.gov/nldi/linked-data/nwissite/USGS-030728552/navigation"}},{"type":"Feature","geometry":{"type":"Point","coordinates":[-80.64340999,40.174516]},"properties":{"type":"hydrolocation","source":"nwissite","sourceName":"NWIS Surface Water Sites","identifier":"USGS-401028080383701","name":"D1-A-A WADDLES RUN NR WHEELING WV","uri":"https://waterdata.usgs.gov/monitoring-location/401028080383701","comid":"19451987","reachcode":"05030106001240","measure":"100.0000000000","navigation":"https://api.water.usgs.gov/nldi/linked-data/nwissite/USGS-401028080383701/navigation"}},{"type":"Feature","geometry":{"type":"Point","coordinates":[-80.05561148,39.9603521]},"properties":{"type":"hydrolocation","source":"nwissite","sourceName":"NWIS Surface Water Sites","identifier":"USGS-03073028","name":"Unnamed Tributary 6 at Clarksville, PA","uri":"https://waterdata.usgs.gov/monitoring-location/03073028","comid":"3788417","reachcode":"05020005001326","measure":"0E-10","navigation":"https://api.water.usgs.gov/nldi/linked-data/nwissite/USGS-03073028/navigation"}},{"type":"Feature","geometry":{"type":"Point","coordinates":[-81.8029087,40.3575684]},"properties":{"type":"hydrolocation","source":"nwissite","sourceName":"NWIS Surface Water Sites","identifier":"USGS-03140030","name":"Spoon Creek trib near Coshocton OH-USGS 03140030","uri":"https://waterdata.usgs.gov/monitoring-location/03140030","comid":"15400206","reachcode":"05040003001313","measure":"90.4886000000","navigation":"https://api.water.usgs.gov/nldi/linked-data/nwissite/USGS-03140030/navigation"}},{"type":"Feature","geometry":{"type":"Point","coordinates":[-79.5944444,39.80444444]},"properties":{"type":"hydrolocation","source":"nwissite","sourceName":"NWIS Surface Water Sites","identifier":"USGS-03070403","name":"S UT to Scotts Run at Fort Necessity, PA","uri":"https://waterdata.usgs.gov/monitoring-location/03070403","comid":"3773255","reachcode":"05020004000635","measure":"71.6327000000","navigation":"https://api.water.usgs.gov/nldi/linked-data/nwissite/USGS-03070403/navigation"}},{"type":"Feature","geometry":{"type":"Point","coordinates":[-81.77485369,39.810905]},"properties":{"type":"hydrolocation","source":"nwissite","sourceName":"NWIS Surface Water Sites","identifier":"USGS-394839081463000","name":"MO9 STREAM NR CHANDLERSVILLE OH","uri":"https://waterdata.usgs.gov/monitoring-location/394839081463000","comid":"15381193","reachcode":"05040004001696","measure":"100.0000000000","navigation":"https://api.water.usgs.gov/nldi/linked-data/nwissite/USGS-394839081463000/navigation"}},{"type":"Feature","geometry":{"type":"Point","coordinates":[-79.64,39.8808333]},"properties":{"type":"hydrolocation","source":"nwissite","sourceName":"NWIS Surface Water Sites","identifier":"USGS-03082375","name":"Unnamed Tributary to Dunbar Creek nr Uniontown,PA","uri":"https://waterdata.usgs.gov/monitoring-location/03082375","comid":"3807605","reachcode":"05020006001630","measure":"84.9258000000","navigation":"https://api.water.usgs.gov/nldi/linked-data/nwissite/USGS-03082375/navigation"}},{"type":"Feature","geometry":{"type":"Point","coordinates":[-80.3158333,39.86555556]},"properties":{"type":"hydrolocation","source":"nwissite","sourceName":"NWIS Surface Water Sites","identifier":"USGS-030728595","name":"Unnamed Trib, Site 19, to Hoge Run nr Holbrook,PA","uri":"https://waterdata.usgs.gov/monitoring-location/030728595","comid":"3788875","reachcode":"05020005001417","measure":"19.9432000000","navigation":"https://api.water.usgs.gov/nldi/linked-data/nwissite/USGS-030728595/navigation"}},{"type":"Feature","geometry":{"type":"Point","coordinates":[-80.402867,39.06370538]},"properties":{"type":"hydrolocation","source":"nwissite","sourceName":"NWIS Surface Water Sites","identifier":"USGS-390349080241101","name":"MC8-A-CMT LIFES RUN TRIB NR WESTON WV","uri":"https://waterdata.usgs.gov/monitoring-location/390349080241101","comid":"3716846","reachcode":"05020002000670","measure":"54.5800000000","navigation":"https://api.water.usgs.gov/nldi/linked-data/nwissite/USGS-390349080241101/navigation"}},{"type":"Feature","geometry":{"type":"Point","coordinates":[-82.46820629,37.3934373]},"properties":{"type":"hydrolocation","source":"nwissite","sourceName":"NWIS Surface Water Sites","identifier":"USGS-03209430","name":"GREASY CREEK NEAR SUTTON, KY","uri":"https://waterdata.usgs.gov/monitoring-location/03209430","comid":"1086823","reachcode":"05070202000043","measure":"64.8409000000","navigation":"https://api.water.usgs.gov/nldi/linked-data/nwissite/USGS-03209430/navigation"}},{"type":"Feature","geometry":{"type":"Point","coordinates":[-82.6557114,37.4617672]},"properties":{"type":"hydrolocation","source":"nwissite","sourceName":"NWIS Surface Water Sites","identifier":"USGS-03209530","name":"MUD CREEK NEAR GRETHEL, KY","uri":"https://waterdata.usgs.gov/monitoring-location/03209530","comid":"887153","reachcode":"05070203000225","measure":"89.2581000000","navigation":"https://api.water.usgs.gov/nldi/linked-data/nwissite/USGS-03209530/navigation"}},{"type":"Feature","geometry":{"type":"Point","coordinates":[-82.8423834,37.45037695]},"properties":{"type":"hydrolocation","source":"nwissite","sourceName":"NWIS Surface Water Sites","identifier":"USGS-03209603","name":"JONES FORK AT BETTY, KY","uri":"https://waterdata.usgs.gov/monitoring-location/03209603","comid":"887177","reachcode":"05070203000150","measure":"97.1103000000","navigation":"https://api.water.usgs.gov/nldi/linked-data/nwissite/USGS-03209603/navigation"}},{"type":"Feature","geometry":{"type":"Point","coordinates":[-82.7718263,37.55732084]},"properties":{"type":"hydrolocation","source":"nwissite","sourceName":"NWIS Surface Water Sites","identifier":"USGS-03209625","name":"RIGHT FORK BEAVER CREEK AT MARTIN, KY","uri":"https://waterdata.usgs.gov/monitoring-location/03209625","comid":"886429","reachcode":"05070203000139","measure":"3.5548000000","navigation":"https://api.water.usgs.gov/nldi/linked-data/nwissite/USGS-03209625/navigation"}},{"type":"Feature","geometry":{"type":"Point","coordinates":[-82.752381,37.4823221]},"properties":{"type":"hydrolocation","source":"nwissite","sourceName":"NWIS Surface Water Sites","identifier":"USGS-03209650","name":"LEFT FORK BEAVER CREEK AT DRIFT, KY","uri":"https://waterdata.usgs.gov/monitoring-location/03209650","comid":"887511","reachcode":"05070203000185","measure":"58.1605000000","navigation":"https://api.water.usgs.gov/nldi/linked-data/nwissite/USGS-03209650/navigation"}},{"type":"Feature","geometry":{"type":"Point","coordinates":[-82.84794,37.61315248]},"properties":{"type":"hydrolocation","source":"nwissite","sourceName":"NWIS Surface Water Sites","identifier":"USGS-03209870","name":"LEFT FORK MIDDLE CREEK NEAR GOODLOE, KY","uri":"https://waterdata.usgs.gov/monitoring-location/03209870","comid":"886179","reachcode":"05070203000124","measure":"87.6615000000","navigation":"https://api.water.usgs.gov/nldi/linked-data/nwissite/USGS-03209870/navigation"}},{"type":"Feature","geometry":{"type":"Point","coordinates":[-82.7968272,37.65481915]},"properties":{"type":"hydrolocation","source":"nwissite","sourceName":"NWIS Surface Water Sites","identifier":"USGS-03209890","name":"MIDDLE CREEK NEAR PRESTONBURG, KY","uri":"https://waterdata.usgs.gov/monitoring-location/03209890","comid":"886073","reachcode":"05070203000108","measure":"87.5695000000","navigation":"https://api.water.usgs.gov/nldi/linked-data/nwissite/USGS-03209890/navigation"}},{"type":"Feature","geometry":{"type":"Point","coordinates":[-82.7946049,37.68120768]},"properties":{"type":"hydrolocation","source":"nwissite","sourceName":"NWIS Surface Water Sites","identifier":"USGS-03209910","name":"ABBOTT CREEK NEAR PRESTONSBURG, KY","uri":"https://waterdata.usgs.gov/monitoring-location/03209910","comid":"885999","reachcode":"05070203000101","measure":"8.8272000000","navigation":"https://api.water.usgs.gov/nldi/linked-data/nwissite/USGS-03209910/navigation"}},{"type":"Feature","geometry":{"type":"Point","coordinates":[-82.4551488,37.5534335]},"properties":{"type":"hydrolocation","source":"nwissite","sourceName":"NWIS Surface Water Sites","identifier":"USGS-03210060","name":"RACCOON CREEK NEAR ZEBULLON, KY","uri":"https://waterdata.usgs.gov/monitoring-location/03210060","comid":"886411","reachcode":"05070203000283","measure":"67.8017000000","navigation":"https://api.water.usgs.gov/nldi/linked-data/nwissite/USGS-03210060/navigation"}},{"type":"Feature","geometry":{"type":"Point","coordinates":[-82.6382105,37.66787548]},"properties":{"type":"hydrolocation","source":"nwissite","sourceName":"NWIS Surface Water Sites","identifier":"USGS-03210450","name":"BUFFALO CREEK NEAR GERMAN, KY","uri":"https://waterdata.usgs.gov/monitoring-location/03210450","comid":"886119","reachcode":"05070203000263","measure":"0.4457000000","navigation":"https://api.water.usgs.gov/nldi/linked-data/nwissite/USGS-03210450/navigation"}},{"type":"Feature","geometry":{"type":"Point","coordinates":[-82.7048795,37.7473186]},"properties":{"type":"hydrolocation","source":"nwissite","sourceName":"NWIS Surface Water Sites","identifier":"USGS-03211690","name":"DANIELS CREEK NEAR ODDS, KY","uri":"https://waterdata.usgs.gov/monitoring-location/03211690","comid":"886667","reachcode":"05070203000317","measure":"32.9177000000","navigation":"https://api.water.usgs.gov/nldi/linked-data/nwissite/USGS-03211690/navigation"}},{"type":"Feature","geometry":{"type":"Point","coordinates":[-82.722658,37.74731854]},"properties":{"type":"hydrolocation","source":"nwissite","sourceName":"NWIS Surface Water Sites","identifier":"USGS-03211700","name":"DANIELS CREEK AT MOUTH NEAR VAN LEAR, KY","uri":"https://waterdata.usgs.gov/monitoring-location/03211700","comid":"885875","reachcode":"05070203000316","measure":"4.6142000000","navigation":"https://api.water.usgs.gov/nldi/linked-data/nwissite/USGS-03211700/navigation"}},{"type":"Feature","geometry":{"type":"Point","coordinates":[-82.995445,37.92536726]},"properties":{"type":"hydrolocation","source":"nwissite","sourceName":"NWIS Surface Water Sites","identifier":"USGS-03211945","name":"OPEN FORK PAINT CREEK NEAR RELIEF, KY","uri":"https://waterdata.usgs.gov/monitoring-location/03211945","comid":"885461","reachcode":"05070203000053","measure":"98.4077000000","navigation":"https://api.water.usgs.gov/nldi/linked-data/nwissite/USGS-03211945/navigation"}},{"type":"Feature","geometry":{"type":"Point","coordinates":[-82.7626593,37.84509389]},"properties":{"type":"hydrolocation","source":"nwissite","sourceName":"NWIS Surface Water Sites","identifier":"USGS-03212520","name":"TOMS CREEK NEAR TUTOR KEY, KY","uri":"https://waterdata.usgs.gov/monitoring-location/03212520","comid":"885661","reachcode":"05070203000024","measure":"7.7585000000","navigation":"https://api.water.usgs.gov/nldi/linked-data/nwissite/USGS-03212520/navigation"}},{"type":"Feature","geometry":{"type":"Point","coordinates":[-82.6701566,37.94898088]},"properties":{"type":"hydrolocation","source":"nwissite","sourceName":"NWIS Surface Water Sites","identifier":"USGS-03212530","name":"GEORGES CREEK NEAR ULYSSES, KY","uri":"https://waterdata.usgs.gov/monitoring-location/03212530","comid":"885401","reachcode":"05070203000008","measure":"70.5634000000","navigation":"https://api.water.usgs.gov/nldi/linked-data/nwissite/USGS-03212530/navigation"}},{"type":"Feature","geometry":{"type":"Point","coordinates":[-82.696824,37.9625916]},"properties":{"type":"hydrolocation","source":"nwissite","sourceName":"NWIS Surface Water Sites","identifier":"USGS-03212535","name":"RIGHT FORK CREEK NEAR CHARLEY, KY","uri":"https://waterdata.usgs.gov/monitoring-location/03212535","comid":"885375","reachcode":"05070203000402","measure":"15.9556000000","navigation":"https://api.water.usgs.gov/nldi/linked-data/nwissite/USGS-03212535/navigation"}},{"type":"Feature","geometry":{"type":"Point","coordinates":[-82.1367988,37.5489953]},"properties":{"type":"hydrolocation","source":"nwissite","sourceName":"NWIS Surface Water Sites","identifier":"USGS-03213650","name":"BARENSHEE CREEK NEAR STOPOVER, KY","uri":"https://waterdata.usgs.gov/monitoring-location/03213650","comid":"435486","reachcode":"05070201000805","measure":"16.4323000000","navigation":"https://api.water.usgs.gov/nldi/linked-data/nwissite/USGS-03213650/navigation"}},{"type":"Feature","geometry":{"type":"Point","coordinates":[-82.1595782,37.504829]},"properties":{"type":"hydrolocation","source":"nwissite","sourceName":"NWIS Surface Water Sites","identifier":"USGS-03213680","name":"RIGHT FORK PETER CREEK NEAR PHELPS, KY","uri":"https://waterdata.usgs.gov/monitoring-location/03213680","comid":"166811790","reachcode":"05070201005368","measure":"51.3819000000","navigation":"https://api.water.usgs.gov/nldi/linked-data/nwissite/USGS-03213680/navigation"}},{"type":"Feature","geometry":{"type":"Point","coordinates":[-82.1881912,37.5684384]},"properties":{"type":"hydrolocation","source":"nwissite","sourceName":"NWIS Surface Water Sites","identifier":"USGS-03213690","name":"BLACKBERRY CREEK AT RANSOM, KY","uri":"https://waterdata.usgs.gov/monitoring-location/03213690","comid":"435414","reachcode":"05070201000145","measure":"66.9675000000","navigation":"https://api.water.usgs.gov/nldi/linked-data/nwissite/USGS-03213690/navigation"}},{"type":"Feature","geometry":{"type":"Point","coordinates":[-82.340143,37.73926614]},"properties":{"type":"hydrolocation","source":"nwissite","sourceName":"NWIS Surface Water Sites","identifier":"USGS-03213790","name":"BIG CREEK NEAR HATFIELD, KY","uri":"https://waterdata.usgs.gov/monitoring-location/03213790","comid":"434904","reachcode":"05070201000102","measure":"51.9414000000","navigation":"https://api.water.usgs.gov/nldi/linked-data/nwissite/USGS-03213790/navigation"}},{"type":"Feature","geometry":{"type":"Point","coordinates":[-82.4818157,37.765375]},"properties":{"type":"hydrolocation","source":"nwissite","sourceName":"NWIS Surface Water Sites","identifier":"USGS-03214300","name":"WOLF CREEK NEAR MCCLURE, KY","uri":"https://waterdata.usgs.gov/monitoring-location/03214300","comid":"434826","reachcode":"05070201000076","measure":"70.5543000000","navigation":"https://api.water.usgs.gov/nldi/linked-data/nwissite/USGS-03214300/navigation"}},{"type":"Feature","geometry":{"type":"Point","coordinates":[-82.5818203,37.88509378]},"properties":{"type":"hydrolocation","source":"nwissite","sourceName":"NWIS Surface Water Sites","identifier":"USGS-03214720","name":"ROCKHOUSE FORK NEAR MILO, KY","uri":"https://waterdata.usgs.gov/monitoring-location/03214720","comid":"434376","reachcode":"05070201000014","measure":"35.4568000000","navigation":"https://api.water.usgs.gov/nldi/linked-data/nwissite/USGS-03214720/navigation"}},{"type":"Feature","geometry":{"type":"Point","coordinates":[-82.6104344,38.12036529]},"properties":{"type":"hydrolocation","source":"nwissite","sourceName":"NWIS Surface Water Sites","identifier":"USGS-03214980","name":"BIG SANDY RIVER AUXILIARY AT LOUISA, KY","uri":"https://waterdata.usgs.gov/monitoring-location/03214980","comid":"909021","reachcode":"05070204000131","measure":"72.0730000000","navigation":"https://api.water.usgs.gov/nldi/linked-data/nwissite/USGS-03214980/navigation"}},{"type":"Feature","geometry":{"type":"Point","coordinates":[-82.862385,38.02842197]},"properties":{"type":"hydrolocation","source":"nwissite","sourceName":"NWIS Surface Water Sites","identifier":"USGS-03215367","name":"CAINES CREEK NEAR BLAINE, KY","uri":"https://waterdata.usgs.gov/monitoring-location/03215367","comid":"908803","reachcode":"05070204000076","measure":"5.3165000000","navigation":"https://api.water.usgs.gov/nldi/linked-data/nwissite/USGS-03215367/navigation"}},{"type":"Feature","geometry":{"type":"Point","coordinates":[-82.8409955,38.02786664]},"properties":{"type":"hydrolocation","source":"nwissite","sourceName":"NWIS Surface Water Sites","identifier":"USGS-03215380","name":"HOOD CREEK AT BLAINE, KY","uri":"https://waterdata.usgs.gov/monitoring-location/03215380","comid":"908823","reachcode":"05070204000108","measure":"35.6141000000","navigation":"https://api.water.usgs.gov/nldi/linked-data/nwissite/USGS-03215380/navigation"}},{"type":"Feature","geometry":{"type":"Point","coordinates":[-82.8071053,38.02064497]},"properties":{"type":"hydrolocation","source":"nwissite","sourceName":"NWIS Surface Water Sites","identifier":"USGS-03215420","name":"BRUSHY CREEK NEAR CORDELL, KY","uri":"https://waterdata.usgs.gov/monitoring-location/03215420","comid":"908843","reachcode":"05070204000119","measure":"47.8827000000","navigation":"https://api.water.usgs.gov/nldi/linked-data/nwissite/USGS-03215420/navigation"}},{"type":"Feature","geometry":{"type":"Point","coordinates":[-82.6879357,38.06064457]},"properties":{"type":"hydrolocation","source":"nwissite","sourceName":"NWIS Surface Water Sites","identifier":"USGS-03215470","name":"LITTLE BLAINE CREEK NEAR EVERGREEN, KY","uri":"https://waterdata.usgs.gov/monitoring-location/03215470","comid":"908737","reachcode":"05070204000126","measure":"80.8952000000","navigation":"https://api.water.usgs.gov/nldi/linked-data/nwissite/USGS-03215470/navigation"}},{"type":"Feature","geometry":{"type":"Point","coordinates":[-82.688215,38.18425209]},"properties":{"type":"hydrolocation","source":"nwissite","sourceName":"NWIS Surface Water Sites","identifier":"USGS-03215550","name":"CAT FORK CREEK AT FALLSBURG, KY","uri":"https://waterdata.usgs.gov/monitoring-location/03215550","comid":"908535","reachcode":"05070204000030","measure":"10.8141000000","navigation":"https://api.water.usgs.gov/nldi/linked-data/nwissite/USGS-03215550/navigation"}},{"type":"Feature","geometry":{"type":"Point","coordinates":[-83.1243394,38.08730717]},"properties":{"type":"hydrolocation","source":"nwissite","sourceName":"NWIS Surface Water Sites","identifier":"USGS-03216180","name":"LITTLE SANDY RIVER AT SANDY HOOK, KY","uri":"https://waterdata.usgs.gov/monitoring-location/03216180","comid":"1937356","reachcode":"05090104000124","measure":"79.3695000000","navigation":"https://api.water.usgs.gov/nldi/linked-data/nwissite/USGS-03216180/navigation"}},{"type":"Feature","geometry":{"type":"Point","coordinates":[-83.1626748,38.15619446]},"properties":{"type":"hydrolocation","source":"nwissite","sourceName":"NWIS Surface Water Sites","identifier":"USGS-03216230","name":"BIG CANEY CREEK NEAR STARK, KY","uri":"https://waterdata.usgs.gov/monitoring-location/03216230","comid":"1937222","reachcode":"05090104000099","measure":"47.1546000000","navigation":"https://api.water.usgs.gov/nldi/linked-data/nwissite/USGS-03216230/navigation"}},{"type":"Feature","geometry":{"type":"Point","coordinates":[-82.9301665,38.15619575]},"properties":{"type":"hydrolocation","source":"nwissite","sourceName":"NWIS Surface Water Sites","identifier":"USGS-03216430","name":"LITTLE SANDY RIVER AT DOBBINS, KY","uri":"https://waterdata.usgs.gov/monitoring-location/03216430","comid":"1936516","reachcode":"05090104000166","measure":"67.5336000000","navigation":"https://api.water.usgs.gov/nldi/linked-data/nwissite/USGS-03216430/navigation"}},{"type":"Feature","geometry":{"type":"Point","coordinates":[-82.9251668,38.2023057]},"properties":{"type":"hydrolocation","source":"nwissite","sourceName":"NWIS Surface Water Sites","identifier":"USGS-03216438","name":"LITTLE FORK LITTLE SANDY RIVER NEAR WILLIARD, KY","uri":"https://waterdata.usgs.gov/monitoring-location/03216438","comid":"1936452","reachcode":"05090104000160","measure":"38.1804000000","navigation":"https://api.water.usgs.gov/nldi/linked-data/nwissite/USGS-03216438/navigation"}},{"type":"Feature","geometry":{"type":"Point","coordinates":[-82.9523914,38.34396996]},"properties":{"type":"hydrolocation","source":"nwissite","sourceName":"NWIS Surface Water Sites","identifier":"USGS-03216520","name":"BERET CREEK NEAR GRAYSON, KY","uri":"https://waterdata.usgs.gov/monitoring-location/03216520","comid":"1936206","reachcode":"05090104000050","measure":"36.7413000000","navigation":"https://api.water.usgs.gov/nldi/linked-data/nwissite/USGS-03216520/navigation"}},{"type":"Feature","geometry":{"type":"Point","coordinates":[-82.7187729,38.3228604]},"properties":{"type":"hydrolocation","source":"nwissite","sourceName":"NWIS Surface Water Sites","identifier":"USGS-03216550","name":"EAST FORK LITTLE SANDY RIVER NEAR CANNONSBURG,KY","uri":"https://waterdata.usgs.gov/monitoring-location/03216550","comid":"1936222","reachcode":"05090104000223","measure":"30.5705000000","navigation":"https://api.water.usgs.gov/nldi/linked-data/nwissite/USGS-03216550/navigation"}},{"type":"Feature","geometry":{"type":"Point","coordinates":[-82.7204403,38.3870264]},"properties":{"type":"hydrolocation","source":"nwissite","sourceName":"NWIS Surface Water Sites","identifier":"USGS-03216558","name":"EF LITTLE SANDY RIVER NEAR CANNONSBURG, KY","uri":"https://waterdata.usgs.gov/monitoring-location/03216558","comid":"1936136","reachcode":"05090104000218","measure":"37.8917000000","navigation":"https://api.water.usgs.gov/nldi/linked-data/nwissite/USGS-03216558/navigation"}},{"type":"Feature","geometry":{"type":"Point","coordinates":[-82.74710769,38.38452638]},"properties":{"type":"hydrolocation","source":"nwissite","sourceName":"NWIS Surface Water Sites","identifier":"USGS-03216567","name":"WILLIAMS CREEK AT PRINCESS, KY","uri":"https://waterdata.usgs.gov/monitoring-location/03216567","comid":"1936648","reachcode":"05090104000255","measure":"44.9411000000","navigation":"https://api.water.usgs.gov/nldi/linked-data/nwissite/USGS-03216567/navigation"}},{"type":"Feature","geometry":{"type":"Point","coordinates":[-83.2182333,38.2656368]},"properties":{"type":"hydrolocation","source":"nwissite","sourceName":"NWIS Surface Water Sites","identifier":"USGS-03216770","name":"SOLDIER FORK AT LAWTON, KY","uri":"https://waterdata.usgs.gov/monitoring-location/03216770","comid":"467120","reachcode":"05090103000168","measure":"79.5500000000","navigation":"https://api.water.usgs.gov/nldi/linked-data/nwissite/USGS-03216770/navigation"}},{"type":"Feature","geometry":{"type":"Point","coordinates":[-83.1895603,38.29038098]},"properties":{"type":"hydrolocation","source":"nwissite","sourceName":"NWIS Surface Water Sites","identifier":"USGS-03216777","name":"TYGARTS CREEK AT LAWTON RD AT OLIVE HILL,KY","uri":"https://waterdata.usgs.gov/monitoring-location/03216777","comid":"467082","reachcode":"05090103000154","measure":"33.0565000000","navigation":"https://api.water.usgs.gov/nldi/linked-data/nwissite/USGS-03216777/navigation"}},{"type":"Feature","geometry":{"type":"Point","coordinates":[-83.1943439,38.3014697]},"properties":{"type":"hydrolocation","source":"nwissite","sourceName":"NWIS Surface Water Sites","identifier":"USGS-03216780","name":"PERRY BRANCH NEAR OLIVE HILL, KY","uri":"https://waterdata.usgs.gov/monitoring-location/03216780","comid":"467068","reachcode":"05090103000465","measure":"59.0806000000","navigation":"https://api.water.usgs.gov/nldi/linked-data/nwissite/USGS-03216780/navigation"}},{"type":"Feature","geometry":{"type":"Point","coordinates":[-83.1854546,38.2931365]},"properties":{"type":"hydrolocation","source":"nwissite","sourceName":"NWIS Surface Water Sites","identifier":"USGS-03216790","name":"BRANCH AT US HWY 60 NEAR OLIVE HILL, KY","uri":"https://waterdata.usgs.gov/monitoring-location/03216790","comid":"467068","reachcode":"05090103000465","measure":"4.4018000000","navigation":"https://api.water.usgs.gov/nldi/linked-data/nwissite/USGS-03216790/navigation"}},{"type":"Feature","geometry":{"type":"Point","coordinates":[-79.9311111,39.7675]},"properties":{"type":"hydrolocation","source":"nwissite","sourceName":"NWIS Surface Water Sites","identifier":"USGS-03072460","name":"South Run US Main Loop Tr nr Winstead, PA","uri":"https://waterdata.usgs.gov/monitoring-location/03072460","comid":"3788127","reachcode":"05020005000246","measure":"4.9582000000","navigation":"https://api.water.usgs.gov/nldi/linked-data/nwissite/USGS-03072460/navigation"}},{"type":"Feature","geometry":{"type":"Point","coordinates":[-81.6553611,38.7263611]},"properties":{"type":"hydrolocation","source":"nwissite","sourceName":"NWIS Surface Water Sites","identifier":"USGS-03159718","name":"GRASSLICK CREEK TRIB AB I-77 NEAR FAIRPLAIN, WV","uri":"https://waterdata.usgs.gov/monitoring-location/03159718","comid":"19442695","reachcode":"05030202000557","measure":"56.6857000000","navigation":"https://api.water.usgs.gov/nldi/linked-data/nwissite/USGS-03159718/navigation"}},{"type":"Feature","geometry":{"type":"Point","coordinates":[-80.85174209,36.9662317]},"properties":{"type":"hydrolocation","source":"nwissite","sourceName":"NWIS Surface Water Sites","identifier":"USGS-03167100","name":"MCGAVOCK CREEK AT TRUCK STP NR GRAHAMS FORGE, VA","uri":"https://waterdata.usgs.gov/monitoring-location/03167100","comid":"6885330","reachcode":"05050001002350","measure":"90.2583000000","navigation":"https://api.water.usgs.gov/nldi/linked-data/nwissite/USGS-03167100/navigation"}},{"type":"Feature","geometry":{"type":"Point","coordinates":[-82.2156946,37.11677498]},"properties":{"type":"hydrolocation","source":"nwissite","sourceName":"NWIS Surface Water Sites","identifier":"USGS-032081076","name":"PRIEST FORK TRIBUTARY NO 3 AT MOUTH NR MURPHY, VA","uri":"https://waterdata.usgs.gov/monitoring-location/032081076","comid":"1088421","reachcode":"05070202000881","measure":"28.0043000000","navigation":"https://api.water.usgs.gov/nldi/linked-data/nwissite/USGS-032081076/navigation"}},{"type":"Feature","geometry":{"type":"Point","coordinates":[-82.4243159,37.34816159]},"properties":{"type":"hydrolocation","source":"nwissite","sourceName":"NWIS Surface Water Sites","identifier":"USGS-372053082252800","name":"MARROWBONE CREEK NEAR WOLF PIT, KY","uri":"https://waterdata.usgs.gov/monitoring-location/372053082252800","comid":"1087101","reachcode":"05070202000060","measure":"22.5505000000","navigation":"https://api.water.usgs.gov/nldi/linked-data/nwissite/USGS-372053082252800/navigation"}},{"type":"Feature","geometry":{"type":"Point","coordinates":[-82.2468075,37.36955245]},"properties":{"type":"hydrolocation","source":"nwissite","sourceName":"NWIS Surface Water Sites","identifier":"USGS-372210082144900","name":"LITTLE HACKNEY CREEK AT MOUTHCARD, KY","uri":"https://waterdata.usgs.gov/monitoring-location/372210082144900","comid":"1088889","reachcode":"05070202000317","measure":"99.4493000000","navigation":"https://api.water.usgs.gov/nldi/linked-data/nwissite/USGS-372210082144900/navigation"}},{"type":"Feature","geometry":{"type":"Point","coordinates":[-82.3473671,37.43593815]},"properties":{"type":"hydrolocation","source":"nwissite","sourceName":"NWIS Surface Water Sites","identifier":"USGS-372609082205100","name":"FEDS HOLLOW NEAR PHYLLIS, KY","uri":"https://waterdata.usgs.gov/monitoring-location/372609082205100","comid":"1086659","reachcode":"05070202001035","measure":"49.4552000000","navigation":"https://api.water.usgs.gov/nldi/linked-data/nwissite/USGS-372609082205100/navigation"}},{"type":"Feature","geometry":{"type":"Point","coordinates":[-82.32069919,37.44899387]},"properties":{"type":"hydrolocation","source":"nwissite","sourceName":"NWIS Surface Water Sites","identifier":"USGS-372656082191500","name":"HONEY FORK AT PHYLLIS, KY","uri":"https://waterdata.usgs.gov/monitoring-location/372656082191500","comid":"1086621","reachcode":"05070202001038","measure":"0.4303000000","navigation":"https://api.water.usgs.gov/nldi/linked-data/nwissite/USGS-372656082191500/navigation"}},{"type":"Feature","geometry":{"type":"Point","coordinates":[-82.3220881,37.44899385]},"properties":{"type":"hydrolocation","source":"nwissite","sourceName":"NWIS Surface Water Sites","identifier":"USGS-372656082192000","name":"HONEY FORK NEAR PHYLLIS, KY","uri":"https://waterdata.usgs.gov/monitoring-location/372656082192000","comid":"1086623","reachcode":"05070202001037","measure":"1.2160000000","navigation":"https://api.water.usgs.gov/nldi/linked-data/nwissite/USGS-372656082192000/navigation"}},{"type":"Feature","geometry":{"type":"Point","coordinates":[-82.3012539,37.4523275]},"properties":{"type":"hydrolocation","source":"nwissite","sourceName":"NWIS Surface Water Sites","identifier":"USGS-372708082180700","name":"LOWER CAMP BRANCH NEAR PHYLLIS, KY","uri":"https://waterdata.usgs.gov/monitoring-location/372708082180700","comid":"1086621","reachcode":"05070202001038","measure":"42.3769000000","navigation":"https://api.water.usgs.gov/nldi/linked-data/nwissite/USGS-372708082180700/navigation"}},{"type":"Feature","geometry":{"type":"Point","coordinates":[-79.6002778,39.80944444]},"properties":{"type":"hydrolocation","source":"nwissite","sourceName":"NWIS Surface Water Sites","identifier":"USGS-03070402","name":"N UT to Scotts Run at Ft Necessity State Park, PA","uri":"https://waterdata.usgs.gov/monitoring-location/03070402","comid":"3773251","reachcode":"05020004000636","measure":"80.8089000000","navigation":"https://api.water.usgs.gov/nldi/linked-data/nwissite/USGS-03070402/navigation"}},{"type":"Feature","geometry":{"type":"Point","coordinates":[-82.8293284,37.78592769]},"properties":{"type":"hydrolocation","source":"nwissite","sourceName":"NWIS Surface Water Sites","identifier":"USGS-374709082494600","name":"JENNYS CREEK AT HWY 825 NR HAGERHILL, KY","uri":"https://waterdata.usgs.gov/monitoring-location/374709082494600","comid":"885819","reachcode":"05070203000084","measure":"97.1611000000","navigation":"https://api.water.usgs.gov/nldi/linked-data/nwissite/USGS-374709082494600/navigation"}},{"type":"Feature","geometry":{"type":"Point","coordinates":[-82.7207135,37.83648324]},"properties":{"type":"hydrolocation","source":"nwissite","sourceName":"NWIS Surface Water Sites","identifier":"USGS-375011082431500","name":"GREASY CREEK NEAR WILLIAMSPORT, KY","uri":"https://waterdata.usgs.gov/monitoring-location/375011082431500","comid":"885697","reachcode":"05070203000321","measure":"5.9086000000","navigation":"https://api.water.usgs.gov/nldi/linked-data/nwissite/USGS-375011082431500/navigation"}},{"type":"Feature","geometry":{"type":"Point","coordinates":[-82.8832191,37.8453702]},"properties":{"type":"hydrolocation","source":"nwissite","sourceName":"NWIS Surface Water Sites","identifier":"USGS-375043082530000","name":"TOMS CREEK AT TUTOR KEY, KY","uri":"https://waterdata.usgs.gov/monitoring-location/375043082530000","comid":"885683","reachcode":"05070203000043","measure":"60.2247000000","navigation":"https://api.water.usgs.gov/nldi/linked-data/nwissite/USGS-375043082530000/navigation"}},{"type":"Feature","geometry":{"type":"Point","coordinates":[-82.68849279,38.1839743]},"properties":{"type":"hydrolocation","source":"nwissite","sourceName":"NWIS Surface Water Sites","identifier":"USGS-381102082411900","name":"CATS FORK AT HWY 3 BRIDGE NEAR FALLSBURG, KY","uri":"https://waterdata.usgs.gov/monitoring-location/381102082411900","comid":"908535","reachcode":"05070204000030","measure":"14.1213000000","navigation":"https://api.water.usgs.gov/nldi/linked-data/nwissite/USGS-381102082411900/navigation"}},{"type":"Feature","geometry":{"type":"Point","coordinates":[-81.9401205,37.59177545]},"properties":{"type":"hydrolocation","source":"nwissite","sourceName":"NWIS Surface Water Sites","identifier":"USGS-373530081562501","name":"K6-R-MT WALNUT HOLLOW NR GILBERT WV","uri":"https://waterdata.usgs.gov/monitoring-location/373530081562501","comid":"434010","reachcode":"05070201000431","measure":"36.7509000000","navigation":"https://api.water.usgs.gov/nldi/linked-data/nwissite/USGS-373530081562501/navigation"}},{"type":"Feature","geometry":{"type":"Point","coordinates":[-82.9676714,38.5020237]},"properties":{"type":"hydrolocation","source":"nwissite","sourceName":"NWIS Surface Water Sites","identifier":"USGS-383007082580400","name":"TYGARTS CREEK NEAR LOAD, KY","uri":"https://waterdata.usgs.gov/monitoring-location/383007082580400","comid":"465340","reachcode":"05090103000071","measure":"51.0353000000","navigation":"https://api.water.usgs.gov/nldi/linked-data/nwissite/USGS-383007082580400/navigation"}},{"type":"Feature","geometry":{"type":"Point","coordinates":[-81.5281603,37.49372468]},"properties":{"type":"hydrolocation","source":"nwissite","sourceName":"NWIS Surface Water Sites","identifier":"USGS-372937081314201","name":"NR1-A-MT INDIAN CREEK TRIB NR WELCH WV","uri":"https://waterdata.usgs.gov/monitoring-location/372937081314201","comid":"6936092","reachcode":"05070101000077","measure":"19.3378000000","navigation":"https://api.water.usgs.gov/nldi/linked-data/nwissite/USGS-372937081314201/navigation"}},{"type":"Feature","geometry":{"type":"Point","coordinates":[-79.5925,39.80277778]},"properties":{"type":"hydrolocation","source":"nwissite","sourceName":"NWIS Surface Water Sites","identifier":"USGS-03070404","name":"Scotts Run ab pond at Ft Necessity State Park, PA","uri":"https://waterdata.usgs.gov/monitoring-location/03070404","comid":"3773255","reachcode":"05020004000635","measure":"71.6327000000","navigation":"https://api.water.usgs.gov/nldi/linked-data/nwissite/USGS-03070404/navigation"}},{"type":"Feature","geometry":{"type":"Point","coordinates":[-80.3227778,39.85555556]},"properties":{"type":"hydrolocation","source":"nwissite","sourceName":"NWIS Surface Water Sites","identifier":"USGS-030728591","name":"Unnamed Trib, Site 29, to House Run at Holbrook,PA","uri":"https://waterdata.usgs.gov/monitoring-location/030728591","comid":"3788897","reachcode":"05020005001418","measure":"65.8158000000","navigation":"https://api.water.usgs.gov/nldi/linked-data/nwissite/USGS-030728591/navigation"}},{"type":"Feature","geometry":{"type":"Point","coordinates":[-80.3489775,39.130371]},"properties":{"type":"hydrolocation","source":"nwissite","sourceName":"NWIS Surface Water Sites","identifier":"USGS-390749080205701","name":"MC2-A-MT LOST CR TRIB NR LOST CREEK WV","uri":"https://waterdata.usgs.gov/monitoring-location/390749080205701","comid":"3716602","reachcode":"05020002000697","measure":"84.0443000000","navigation":"https://api.water.usgs.gov/nldi/linked-data/nwissite/USGS-390749080205701/navigation"}},{"type":"Feature","geometry":{"type":"Point","coordinates":[-82.0354068,37.07566578]},"properties":{"type":"hydrolocation","source":"nwissite","sourceName":"NWIS Surface Water Sites","identifier":"USGS-0320803570","name":"BARTON FORK TRIB NEAR COUNCIL, VA","uri":"https://waterdata.usgs.gov/monitoring-location/0320803570","comid":"1088583","reachcode":"05070202000906","measure":"16.8947000000","navigation":"https://api.water.usgs.gov/nldi/linked-data/nwissite/USGS-0320803570/navigation"}},{"type":"Feature","geometry":{"type":"Point","coordinates":[-80.108113,39.97701824]},"properties":{"type":"hydrolocation","source":"nwissite","sourceName":"NWIS Surface Water Sites","identifier":"USGS-03073016","name":"Unnamed Tributary 2 near Clarksville, PA","uri":"https://waterdata.usgs.gov/monitoring-location/03073016","comid":"3788387","reachcode":"05020005000375","measure":"37.8055000000","navigation":"https://api.water.usgs.gov/nldi/linked-data/nwissite/USGS-03073016/navigation"}},{"type":"Feature","geometry":{"type":"Point","coordinates":[-79.5232778,40.4591111]},"properties":{"type":"hydrolocation","source":"nwissite","sourceName":"NWIS Surface Water Sites","identifier":"USGS-03047172","name":"AMD Disch at Getty Run (GRC-AMD)at Slickville,PA","uri":"https://waterdata.usgs.gov/monitoring-location/03047172","comid":"4582868","reachcode":"05010008000459","measure":"83.6036000000","navigation":"https://api.water.usgs.gov/nldi/linked-data/nwissite/USGS-03047172/navigation"}},{"type":"Feature","geometry":{"type":"Point","coordinates":[-79.2091667,40.11277778]},"properties":{"type":"hydrolocation","source":"nwissite","sourceName":"NWIS Surface Water Sites","identifier":"USGS-03079380","name":"Unnamed Tribut  Bald Knob near Roytown, PA","uri":"https://waterdata.usgs.gov/monitoring-location/03079380","comid":"3805379","reachcode":"05020006001049","measure":"82.2098000000","navigation":"https://api.water.usgs.gov/nldi/linked-data/nwissite/USGS-03079380/navigation"}},{"type":"Feature","geometry":{"type":"Point","coordinates":[-80.0711675,39.96507418]},"properties":{"type":"hydrolocation","source":"nwissite","sourceName":"NWIS Surface Water Sites","identifier":"USGS-03073024","name":"Unnamed Tributary 4 at Clarksville, PA","uri":"https://waterdata.usgs.gov/monitoring-location/03073024","comid":"3788413","reachcode":"05020005001327","measure":"3.9837000000","navigation":"https://api.water.usgs.gov/nldi/linked-data/nwissite/USGS-03073024/navigation"}},{"type":"Feature","geometry":{"type":"Point","coordinates":[-82.2356957,37.12427488]},"properties":{"type":"hydrolocation","source":"nwissite","sourceName":"NWIS Surface Water Sites","identifier":"USGS-032081052","name":"FRYINGPAN CREEK TRIB NO 3 AT MOUTH NR COLLEY, VA","uri":"https://waterdata.usgs.gov/monitoring-location/032081052","comid":"1088295","reachcode":"05070202000261","measure":"47.9037000000","navigation":"https://api.water.usgs.gov/nldi/linked-data/nwissite/USGS-032081052/navigation"}},{"type":"Feature","geometry":{"type":"Point","coordinates":[-81.4117828,38.27315806]},"properties":{"type":"hydrolocation","source":"nwissite","sourceName":"NWIS Surface Water Sites","identifier":"USGS-381623081244301","name":"A8-A-C WITCHER CREEK NR CEDAR GROVE WV","uri":"https://waterdata.usgs.gov/monitoring-location/381623081244301","comid":"6924511","reachcode":"05050006000122","measure":"80.5981000000","navigation":"https://api.water.usgs.gov/nldi/linked-data/nwissite/USGS-381623081244301/navigation"}},{"type":"Feature","geometry":{"type":"Point","coordinates":[-80.5534048,40.22923776]},"properties":{"type":"hydrolocation","source":"nwissite","sourceName":"NWIS Surface Water Sites","identifier":"USGS-401345080331301","name":"M5-A-CA MINGO RUN TRIB NR MCKINLEYVILLE WV","uri":"https://waterdata.usgs.gov/monitoring-location/401345080331301","comid":"19451659","reachcode":"05030106000668","measure":"73.3100000000","navigation":"https://api.water.usgs.gov/nldi/linked-data/nwissite/USGS-401345080331301/navigation"}},{"type":"Feature","geometry":{"type":"Point","coordinates":[-79.21171288,42.15922505]},"properties":{"type":"hydrolocation","source":"nwissite","sourceName":"NWIS Surface Water Sites","identifier":"USGS-0301327005","name":"FOLSOM CREEK TRIB AT MOUTH AT ROSS MILLS NY","uri":"https://waterdata.usgs.gov/monitoring-location/0301327005","comid":"15444911","reachcode":"05010002000247","measure":"14.2766000000","navigation":"https://api.water.usgs.gov/nldi/linked-data/nwissite/USGS-0301327005/navigation"}},{"type":"Feature","geometry":{"type":"Point","coordinates":[-80.3422222,39.86416667]},"properties":{"type":"hydrolocation","source":"nwissite","sourceName":"NWIS Surface Water Sites","identifier":"USGS-030728584","name":"Unnamed Trib, Site 28, near Holbrook,PA","uri":"https://waterdata.usgs.gov/monitoring-location/030728584","comid":"3788877","reachcode":"05020005001421","measure":"20.8637000000","navigation":"https://api.water.usgs.gov/nldi/linked-data/nwissite/USGS-030728584/navigation"}},{"type":"Feature","geometry":{"type":"Point","coordinates":[-82.2315286,37.0923299]},"properties":{"type":"hydrolocation","source":"nwissite","sourceName":"NWIS Surface Water Sites","identifier":"USGS-032081042","name":"LITTLE SPRUCE PINE BRANCH AT MOUTH NEAR DUTY, VA","uri":"https://waterdata.usgs.gov/monitoring-location/032081042","comid":"1088553","reachcode":"05070202000870","measure":"0E-10","navigation":"https://api.water.usgs.gov/nldi/linked-data/nwissite/USGS-032081042/navigation"}},{"type":"Feature","geometry":{"type":"Point","coordinates":[-81.6917814,37.8728847]},"properties":{"type":"hydrolocation","source":"nwissite","sourceName":"NWIS Surface Water Sites","identifier":"USGS-375222081413101","name":"AK4-A-AMT TRACE FORK NR BARRETT WV","uri":"https://waterdata.usgs.gov/monitoring-location/375222081413101","comid":"6929656","reachcode":"05050009000492","measure":"43.3722000000","navigation":"https://api.water.usgs.gov/nldi/linked-data/nwissite/USGS-375222081413101/navigation"}},{"type":"Feature","geometry":{"type":"Point","coordinates":[-80.07007008,39.59730445]},"properties":{"type":"hydrolocation","source":"nwissite","sourceName":"NWIS Surface Water Sites","identifier":"USGS-393550080041301","name":"M3-R-MT LITTLE INDIAN CR TRIB NR GEORGETOWN WV","uri":"https://waterdata.usgs.gov/monitoring-location/393550080041301","comid":"3769334","reachcode":"05020003000195","measure":"52.0265000000","navigation":"https://api.water.usgs.gov/nldi/linked-data/nwissite/USGS-393550080041301/navigation"}},{"type":"Feature","geometry":{"type":"Point","coordinates":[-79.3050459,42.23811375]},"properties":{"type":"hydrolocation","source":"nwissite","sourceName":"NWIS Surface Water Sites","identifier":"USGS-0301306715","name":"CASSADAGA CREEK TRIB 10 AT MOUTH AT SOUTH STOCKTON","uri":"https://waterdata.usgs.gov/monitoring-location/0301306715","comid":"15444847","reachcode":"05010002000072","measure":"47.3121000000","navigation":"https://api.water.usgs.gov/nldi/linked-data/nwissite/USGS-0301306715/navigation"}},{"type":"Feature","geometry":{"type":"Point","coordinates":[-82.1956934,37.0964971]},"properties":{"type":"hydrolocation","source":"nwissite","sourceName":"NWIS Surface Water Sites","identifier":"USGS-032081070","name":"PRIEST FORK AT SPRUCE PINE GAP NEAR DUTY, VA","uri":"https://waterdata.usgs.gov/monitoring-location/032081070","comid":"1088421","reachcode":"05070202000881","measure":"86.8342000000","navigation":"https://api.water.usgs.gov/nldi/linked-data/nwissite/USGS-032081070/navigation"}},{"type":"Feature","geometry":{"type":"Point","coordinates":[-82.1968045,37.09677489]},"properties":{"type":"hydrolocation","source":"nwissite","sourceName":"NWIS Surface Water Sites","identifier":"USGS-032081072","name":"PRIEST FORK TRIBUTARY NO 1 AT MOUTH NR DUTY, VA","uri":"https://waterdata.usgs.gov/monitoring-location/032081072","comid":"1088421","reachcode":"05070202000881","measure":"83.8679000000","navigation":"https://api.water.usgs.gov/nldi/linked-data/nwissite/USGS-032081072/navigation"}},{"type":"Feature","geometry":{"type":"Point","coordinates":[-80.9924722,38.12255556]},"properties":{"type":"hydrolocation","source":"nwissite","sourceName":"NWIS Surface Water Sites","identifier":"USGS-03190307","name":"HEDRICKS CREEK TRIBUTARY ABOVE US-19 NEAR HICO, WV","uri":"https://waterdata.usgs.gov/monitoring-location/03190307","comid":"4547406","reachcode":"05050005000534","measure":"83.8272000000","navigation":"https://api.water.usgs.gov/nldi/linked-data/nwissite/USGS-03190307/navigation"}},{"type":"Feature","geometry":{"type":"Point","coordinates":[-79.4280952,39.66341535]},"properties":{"type":"hydrolocation","source":"nwissite","sourceName":"NWIS Surface Water Sites","identifier":"USGS-03076505","name":"YOUGHIOGHENY RIVER TRIBUTARY NEAR FRIENDSVILLE, MD","uri":"https://waterdata.usgs.gov/monitoring-location/03076505","comid":"3808827","reachcode":"05020006001354","measure":"63.2856000000","navigation":"https://api.water.usgs.gov/nldi/linked-data/nwissite/USGS-03076505/navigation"}},{"type":"Feature","geometry":{"type":"Point","coordinates":[-81.1567732,39.9472932]},"properties":{"type":"hydrolocation","source":"nwissite","sourceName":"NWIS Surface Water Sites","identifier":"USGS-03113802","name":"Chestnut Creek near Barnesville OH","uri":"https://waterdata.usgs.gov/monitoring-location/03113802","comid":"19455537","reachcode":"05030106000804","measure":"0E-10","navigation":"https://api.water.usgs.gov/nldi/linked-data/nwissite/USGS-03113802/navigation"}},{"type":"Feature","geometry":{"type":"Point","coordinates":[-79.3126111,40.32225]},"properties":{"type":"hydrolocation","source":"nwissite","sourceName":"NWIS Surface Water Sites","identifier":"USGS-03045105","name":"West Derry AMD Discharge (WDD-AMD)at Derry, PA","uri":"https://waterdata.usgs.gov/monitoring-location/03045105","comid":"4582434","reachcode":"05010008000164","measure":"85.0510000000","navigation":"https://api.water.usgs.gov/nldi/linked-data/nwissite/USGS-03045105/navigation"}},{"type":"Feature","geometry":{"type":"Point","coordinates":[-82.0301288,37.07816588]},"properties":{"type":"hydrolocation","source":"nwissite","sourceName":"NWIS Surface Water Sites","identifier":"USGS-032080353","name":"COON FLAT BRANCH NEAR COUNCIL, VA","uri":"https://waterdata.usgs.gov/monitoring-location/032080353","comid":"1088583","reachcode":"05070202000906","measure":"38.7855000000","navigation":"https://api.water.usgs.gov/nldi/linked-data/nwissite/USGS-032080353/navigation"}},{"type":"Feature","geometry":{"type":"Point","coordinates":[-79.52325,40.4588611]},"properties":{"type":"hydrolocation","source":"nwissite","sourceName":"NWIS Surface Water Sites","identifier":"USGS-03047174","name":"Unnamed trib (GRC-US) to Getty Rn at Slickville,PA","uri":"https://waterdata.usgs.gov/monitoring-location/03047174","comid":"4582868","reachcode":"05010008000459","measure":"83.6036000000","navigation":"https://api.water.usgs.gov/nldi/linked-data/nwissite/USGS-03047174/navigation"}},{"type":"Feature","geometry":{"type":"Point","coordinates":[-80.7606521,38.354275]},"properties":{"type":"hydrolocation","source":"nwissite","sourceName":"NWIS Surface Water Sites","identifier":"USGS-382115080453901","name":"A11-R-MT MCMILLION CREEK TRIB AT WERTH WV","uri":"https://waterdata.usgs.gov/monitoring-location/382115080453901","comid":"4547818","reachcode":"05050005000564","measure":"24.2580000000","navigation":"https://api.water.usgs.gov/nldi/linked-data/nwissite/USGS-382115080453901/navigation"}},{"type":"Feature","geometry":{"type":"Point","coordinates":[-80.0750704,39.59480449]},"properties":{"type":"hydrolocation","source":"nwissite","sourceName":"NWIS Surface Water Sites","identifier":"USGS-393541080043101","name":"M6-R-C LITTLE INDIAN CR TRIB NR GEORGETOWN WV","uri":"https://waterdata.usgs.gov/monitoring-location/393541080043101","comid":"3769334","reachcode":"05020003000195","measure":"39.6850000000","navigation":"https://api.water.usgs.gov/nldi/linked-data/nwissite/USGS-393541080043101/navigation"}},{"type":"Feature","geometry":{"type":"Point","coordinates":[-81.2689975,38.08205258]},"properties":{"type":"hydrolocation","source":"nwissite","sourceName":"NWIS Surface Water Sites","identifier":"USGS-380455081160901","name":"Big Righthand Fk of Loop Ck nr N. Page, WV","uri":"https://waterdata.usgs.gov/monitoring-location/380455081160901","comid":"6924957","reachcode":"05050006000266","measure":"52.3461000000","navigation":"https://api.water.usgs.gov/nldi/linked-data/nwissite/USGS-380455081160901/navigation"}},{"type":"Feature","geometry":{"type":"Point","coordinates":[-79.3064337,42.32228025]},"properties":{"type":"hydrolocation","source":"nwissite","sourceName":"NWIS Surface Water Sites","identifier":"USGS-0301303605","name":"CASSADAGA CR TRIB 2 AT MOUTH AT BURNHAMS NY","uri":"https://waterdata.usgs.gov/monitoring-location/0301303605","comid":"15444767","reachcode":"05010002000078","measure":"25.1260000000","navigation":"https://api.water.usgs.gov/nldi/linked-data/nwissite/USGS-0301303605/navigation"}},{"type":"Feature","geometry":{"type":"Point","coordinates":[-81.6401236,41.1308883]},"properties":{"type":"hydrolocation","source":"nwissite","sourceName":"NWIS Surface Water Sites","identifier":"USGS-03115969","name":"Montrose Run at Montrose OH","uri":"https://waterdata.usgs.gov/monitoring-location/03115969","comid":"19386322","reachcode":"05040001001651","measure":"88.2073000000","navigation":"https://api.water.usgs.gov/nldi/linked-data/nwissite/USGS-03115969/navigation"}},{"type":"Feature","geometry":{"type":"Point","coordinates":[-79.9230556,39.78527778]},"properties":{"type":"hydrolocation","source":"nwissite","sourceName":"NWIS Surface Water Sites","identifier":"USGS-03072503","name":"Dublin Run on Main Loop Tr nr Greensboro, PA","uri":"https://waterdata.usgs.gov/monitoring-location/03072503","comid":"3787745","reachcode":"05020005001164","measure":"4.1618000000","navigation":"https://api.water.usgs.gov/nldi/linked-data/nwissite/USGS-03072503/navigation"}},{"type":"Feature","geometry":{"type":"Point","coordinates":[-80.1325597,39.94368549]},"properties":{"type":"hydrolocation","source":"nwissite","sourceName":"NWIS Surface Water Sites","identifier":"USGS-03072970","name":"Unnamed Tributary near Ruff Creek, PA","uri":"https://waterdata.usgs.gov/monitoring-location/03072970","comid":"3788537","reachcode":"05020005000131","measure":"42.9304000000","navigation":"https://api.water.usgs.gov/nldi/linked-data/nwissite/USGS-03072970/navigation"}},{"type":"Feature","geometry":{"type":"Point","coordinates":[-80.3853667,39.07620529]},"properties":{"type":"hydrolocation","source":"nwissite","sourceName":"NWIS Surface Water Sites","identifier":"USGS-390434080230801","name":"MC9-R-C HACKERS CR TRIB NR WESTON WV","uri":"https://waterdata.usgs.gov/monitoring-location/390434080230801","comid":"3716794","reachcode":"05020002000684","measure":"0E-10","navigation":"https://api.water.usgs.gov/nldi/linked-data/nwissite/USGS-390434080230801/navigation"}},{"type":"Feature","geometry":{"type":"Point","coordinates":[-80.3372222,39.82166667]},"properties":{"type":"hydrolocation","source":"nwissite","sourceName":"NWIS Surface Water Sites","identifier":"USGS-030728563","name":"Unnamed Trib to Garner Run at White Cottage, PA","uri":"https://waterdata.usgs.gov/monitoring-location/030728563","comid":"3789661","reachcode":"05020005001423","measure":"0E-10","navigation":"https://api.water.usgs.gov/nldi/linked-data/nwissite/USGS-030728563/navigation"}},{"type":"Feature","geometry":{"type":"Point","coordinates":[-81.4067825,38.26621385]},"properties":{"type":"hydrolocation","source":"nwissite","sourceName":"NWIS Surface Water Sites","identifier":"USGS-381558081242501","name":"A10-R-C BUFFLICK BRANCH NR CEDAR GROVE WV","uri":"https://waterdata.usgs.gov/monitoring-location/381558081242501","comid":"6924551","reachcode":"05050006000229","measure":"79.9387000000","navigation":"https://api.water.usgs.gov/nldi/linked-data/nwissite/USGS-381558081242501/navigation"}},{"type":"Feature","geometry":{"type":"Point","coordinates":[-82.3468189,39.3961807]},"properties":{"type":"hydrolocation","source":"nwissite","sourceName":"NWIS Surface Water Sites","identifier":"USGS-03201550","name":"Starr Run near New Plymouth OH","uri":"https://waterdata.usgs.gov/monitoring-location/03201550","comid":"3366312","reachcode":"05090101000199","measure":"36.3060000000","navigation":"https://api.water.usgs.gov/nldi/linked-data/nwissite/USGS-03201550/navigation"}},{"type":"Feature","geometry":{"type":"Point","coordinates":[-81.487328,37.27455979]},"properties":{"type":"hydrolocation","source":"nwissite","sourceName":"NWIS Surface Water Sites","identifier":"USGS-03212567","name":"FREEMAN BRANCH NEAR SKYGUSTY, WV","uri":"https://waterdata.usgs.gov/monitoring-location/03212567","comid":"437298","reachcode":"05070201001076","measure":"6.4837000000","navigation":"https://api.water.usgs.gov/nldi/linked-data/nwissite/USGS-03212567/navigation"}},{"type":"Feature","geometry":{"type":"Point","coordinates":[-79.5853212,39.76396528]},"properties":{"type":"hydrolocation","source":"nwissite","sourceName":"NWIS Surface Water Sites","identifier":"USGS-03070417","name":"Unn Trib 2 to Stony Fork Trib nr Gibbon Glade, PA","uri":"https://waterdata.usgs.gov/monitoring-location/03070417","comid":"3773323","reachcode":"05020004000626","measure":"100.0000000000","navigation":"https://api.water.usgs.gov/nldi/linked-data/nwissite/USGS-03070417/navigation"}},{"type":"Feature","geometry":{"type":"Point","coordinates":[-82.2220839,37.1278862]},"properties":{"type":"hydrolocation","source":"nwissite","sourceName":"NWIS Surface Water Sites","identifier":"USGS-032081080","name":"PRIEST FORK TRIB NO 4 AT MOUTH NR COLLEY, VA","uri":"https://waterdata.usgs.gov/monitoring-location/032081080","comid":"1088235","reachcode":"05070202000882","measure":"0E-10","navigation":"https://api.water.usgs.gov/nldi/linked-data/nwissite/USGS-032081080/navigation"}},{"type":"Feature","geometry":{"type":"Point","coordinates":[-79.3202778,39.8761111]},"properties":{"type":"hydrolocation","source":"nwissite","sourceName":"NWIS Surface Water Sites","identifier":"USGS-03079926","name":"May Run near Schweibinzville, PA","uri":"https://waterdata.usgs.gov/monitoring-location/03079926","comid":"3807597","reachcode":"05020006001023","measure":"32.4010000000","navigation":"https://api.water.usgs.gov/nldi/linked-data/nwissite/USGS-03079926/navigation"}},{"type":"Feature","geometry":{"type":"Point","coordinates":[-80.3322222,39.8561111]},"properties":{"type":"hydrolocation","source":"nwissite","sourceName":"NWIS Surface Water Sites","identifier":"USGS-030728587","name":"Unnamed Trib, Site 24, near Holbrook, PA","uri":"https://waterdata.usgs.gov/monitoring-location/030728587","comid":"3788915","reachcode":"05020005001419","measure":"0E-10","navigation":"https://api.water.usgs.gov/nldi/linked-data/nwissite/USGS-030728587/navigation"}},{"type":"Feature","geometry":{"type":"Point","coordinates":[-78.9400312,40.71228735]},"properties":{"type":"hydrolocation","source":"nwissite","sourceName":"NWIS Surface Water Sites","identifier":"USGS-03042045","name":"Unn Trib to NB Two Lick Creek at Commodore, PA","uri":"https://waterdata.usgs.gov/monitoring-location/03042045","comid":"4751286","reachcode":"05010007000563","measure":"21.9869000000","navigation":"https://api.water.usgs.gov/nldi/linked-data/nwissite/USGS-03042045/navigation"}},{"type":"Feature","geometry":{"type":"Point","coordinates":[-81.0209187,37.12345226]},"properties":{"type":"hydrolocation","source":"nwissite","sourceName":"NWIS Surface Water Sites","identifier":"USGS-03171800","name":"HELVEYS MILL CREEK TRIB AT POINT PLEASANT, VA","uri":"https://waterdata.usgs.gov/monitoring-location/03171800","comid":"6909977","reachcode":"05050002001058","measure":"3.7032000000","navigation":"https://api.water.usgs.gov/nldi/linked-data/nwissite/USGS-03171800/navigation"}},{"type":"Feature","geometry":{"type":"Point","coordinates":[-81.2614995,38.2062169]},"properties":{"type":"hydrolocation","source":"nwissite","sourceName":"NWIS Surface Water Sites","identifier":"USGS-381222081154201","name":"A7-R-MT LYNCH FORK NR CANNELTON WV","uri":"https://waterdata.usgs.gov/monitoring-location/381222081154201","comid":"6924665","reachcode":"05050006000253","measure":"19.6509000000","navigation":"https://api.water.usgs.gov/nldi/linked-data/nwissite/USGS-381222081154201/navigation"}},{"type":"Feature","geometry":{"type":"Point","coordinates":[-80.33388889,39.8311111]},"properties":{"type":"hydrolocation","source":"nwissite","sourceName":"NWIS Surface Water Sites","identifier":"USGS-030728569","name":"Unnamed Trib, Site 12, to Garner Rn nr Woodruff,PA","uri":"https://waterdata.usgs.gov/monitoring-location/030728569","comid":"3788977","reachcode":"05020005000195","measure":"78.1478000000","navigation":"https://api.water.usgs.gov/nldi/linked-data/nwissite/USGS-030728569/navigation"}},{"type":"Feature","geometry":{"type":"Point","coordinates":[-81.519549,37.4837248]},"properties":{"type":"hydrolocation","source":"nwissite","sourceName":"NWIS Surface Water Sites","identifier":"USGS-372901081311101","name":"NR1-BASE INDIAN CREEK TRIB NR WELCH WV","uri":"https://waterdata.usgs.gov/monitoring-location/372901081311101","comid":"6936092","reachcode":"05070101000077","measure":"66.1829000000","navigation":"https://api.water.usgs.gov/nldi/linked-data/nwissite/USGS-372901081311101/navigation"}},{"type":"Feature","geometry":{"type":"Point","coordinates":[-80.1091667,39.29902778]},"properties":{"type":"hydrolocation","source":"nwissite","sourceName":"NWIS Surface Water Sites","identifier":"USGS-391757080063301","name":"SAND LICK RUN HEADWATERS ABOVE WENDEL, WV","uri":"https://waterdata.usgs.gov/monitoring-location/391757080063301","comid":"3715988","reachcode":"05020002000791","measure":"77.9428000000","navigation":"https://api.water.usgs.gov/nldi/linked-data/nwissite/USGS-391757080063301/navigation"}},{"type":"Feature","geometry":{"type":"Point","coordinates":[-82.1637476,37.14649826]},"properties":{"type":"hydrolocation","source":"nwissite","sourceName":"NWIS Surface Water Sites","identifier":"USGS-03208075","name":"LITTLE FOX CREEK TRIB NEAR MURPHY, VA","uri":"https://waterdata.usgs.gov/monitoring-location/03208075","comid":"1088183","reachcode":"05070202000503","measure":"30.1178000000","navigation":"https://api.water.usgs.gov/nldi/linked-data/nwissite/USGS-03208075/navigation"}},{"type":"Feature","geometry":{"type":"Point","coordinates":[-81.0542774,39.13730375]},"properties":{"type":"hydrolocation","source":"nwissite","sourceName":"NWIS Surface Water Sites","identifier":"USGS-03155150","name":"INDIAN CK TRIB NR SMITHVILLE, WV","uri":"https://waterdata.usgs.gov/monitoring-location/03155150","comid":"19414525","reachcode":"05030203000690","measure":"70.7402000000","navigation":"https://api.water.usgs.gov/nldi/linked-data/nwissite/USGS-03155150/navigation"}},{"type":"Feature","geometry":{"type":"Point","coordinates":[-80.768153,38.40344]},"properties":{"type":"hydrolocation","source":"nwissite","sourceName":"NWIS Surface Water Sites","identifier":"USGS-382412080460601","name":"A11-BASE LITTLE CREEK NR HOOKERSVILLE WV","uri":"https://waterdata.usgs.gov/monitoring-location/382412080460601","comid":"4545714","reachcode":"05050005000755","measure":"70.5298000000","navigation":"https://api.water.usgs.gov/nldi/linked-data/nwissite/USGS-382412080460601/navigation"}},{"type":"Feature","geometry":{"type":"Point","coordinates":[-79.34059648,39.4739822]},"properties":{"type":"hydrolocation","source":"nwissite","sourceName":"NWIS Surface Water Sites","identifier":"USGS-03075750","name":"SOUTH FORK PAWN RUN NEAR THAYERVILLE, MD","uri":"https://waterdata.usgs.gov/monitoring-location/03075750","comid":"3809461","reachcode":"05020006001479","measure":"79.9538000000","navigation":"https://api.water.usgs.gov/nldi/linked-data/nwissite/USGS-03075750/navigation"}},{"type":"Feature","geometry":{"type":"Point","coordinates":[-79.2567035,39.5295352]},"properties":{"type":"hydrolocation","source":"nwissite","sourceName":"NWIS Surface Water Sites","identifier":"USGS-03075855","name":"MEADOW MOUNTAIN RUN NEAR THAYERVILLE, MD","uri":"https://waterdata.usgs.gov/monitoring-location/03075855","comid":"3808853","reachcode":"05020006001473","measure":"65.9814000000","navigation":"https://api.water.usgs.gov/nldi/linked-data/nwissite/USGS-03075855/navigation"}},{"type":"Feature","geometry":{"type":"Point","coordinates":[-79.2694819,39.5220355]},"properties":{"type":"hydrolocation","source":"nwissite","sourceName":"NWIS Surface Water Sites","identifier":"USGS-03075860","name":"MEADOW MOUNTAIN RUN ABV MOUTH NEAR THAYERVILLE, MD","uri":"https://waterdata.usgs.gov/monitoring-location/03075860","comid":"3808853","reachcode":"05020006001473","measure":"39.2356000000","navigation":"https://api.water.usgs.gov/nldi/linked-data/nwissite/USGS-03075860/navigation"}},{"type":"Feature","geometry":{"type":"Point","coordinates":[-79.2836492,39.517869]},"properties":{"type":"hydrolocation","source":"nwissite","sourceName":"NWIS Surface Water Sites","identifier":"USGS-03075865","name":"MEADOW MOUNTAIN RUN ABV TRIB NEAR THAYERVILLE, MD","uri":"https://waterdata.usgs.gov/monitoring-location/03075865","comid":"3808853","reachcode":"05020006001473","measure":"13.8692000000","navigation":"https://api.water.usgs.gov/nldi/linked-data/nwissite/USGS-03075865/navigation"}},{"type":"Feature","geometry":{"type":"Point","coordinates":[-79.287816,39.51731344]},"properties":{"type":"hydrolocation","source":"nwissite","sourceName":"NWIS Surface Water Sites","identifier":"USGS-03075867","name":"MEADOW MOUNTAIN TRIBUTARY NEAR THAYERVILLE, MD","uri":"https://waterdata.usgs.gov/monitoring-location/03075867","comid":"3808853","reachcode":"05020006001473","measure":"5.7266000000","navigation":"https://api.water.usgs.gov/nldi/linked-data/nwissite/USGS-03075867/navigation"}},{"type":"Feature","geometry":{"type":"Point","coordinates":[-79.2867049,39.5159246]},"properties":{"type":"hydrolocation","source":"nwissite","sourceName":"NWIS Surface Water Sites","identifier":"USGS-03075870","name":"MEADOW MOUNTAIN RUN AT MOUTH NEAR THAYERVILLE, MD","uri":"https://waterdata.usgs.gov/monitoring-location/03075870","comid":"3808853","reachcode":"05020006001473","measure":"5.7266000000","navigation":"https://api.water.usgs.gov/nldi/linked-data/nwissite/USGS-03075870/navigation"}},{"type":"Feature","geometry":{"type":"Point","coordinates":[-79.35425,39.5582222]},"properties":{"type":"hydrolocation","source":"nwissite","sourceName":"NWIS Surface Water Sites","identifier":"USGS-03075925","name":"DEEP CREEK LAKE NR SKY HARBOR DRIVE AT MCHENRY, MD","uri":"https://waterdata.usgs.gov/monitoring-location/03075925","comid":"3808615","reachcode":"05020006001469","measure":"1.7893000000","navigation":"https://api.water.usgs.gov/nldi/linked-data/nwissite/USGS-03075925/navigation"}},{"type":"Feature","geometry":{"type":"Point","coordinates":[-79.3500395,39.5550887]},"properties":{"type":"hydrolocation","source":"nwissite","sourceName":"NWIS Surface Water Sites","identifier":"USGS-03075930","name":"DEEP CREEK LAKE TRIBUTARY NEAR MCHENRY, MD","uri":"https://waterdata.usgs.gov/monitoring-location/03075930","comid":"3809113","reachcode":"05020006007114","measure":"48.7595000000","navigation":"https://api.water.usgs.gov/nldi/linked-data/nwissite/USGS-03075930/navigation"}},{"type":"Feature","geometry":{"type":"Point","coordinates":[-79.344762,39.53786749]},"properties":{"type":"hydrolocation","source":"nwissite","sourceName":"NWIS Surface Water Sites","identifier":"USGS-03075960","name":"GRAVELLY RUN NEAR MCHENRY, MD","uri":"https://waterdata.usgs.gov/monitoring-location/03075960","comid":"3809117","reachcode":"05020006007112","measure":"30.2883000000","navigation":"https://api.water.usgs.gov/nldi/linked-data/nwissite/USGS-03075960/navigation"}},{"type":"Feature","geometry":{"type":"Point","coordinates":[-79.1672529,39.68675009]},"properties":{"type":"hydrolocation","source":"nwissite","sourceName":"NWIS Surface Water Sites","identifier":"USGS-03077975","name":"BIG SHADE RUN AT GRANTSVILLE, MD","uri":"https://waterdata.usgs.gov/monitoring-location/03077975","comid":"3808373","reachcode":"05020006000481","measure":"27.4277000000","navigation":"https://api.water.usgs.gov/nldi/linked-data/nwissite/USGS-03077975/navigation"}},{"type":"Feature","geometry":{"type":"Point","coordinates":[-80.6620193,41.01200344]},"properties":{"type":"hydrolocation","source":"nwissite","sourceName":"NWIS Surface Water Sites","identifier":"USGS-03098350","name":"Charles Ditch at Boardman OH","uri":"https://waterdata.usgs.gov/monitoring-location/03098350","comid":"13154021","reachcode":"05030103001053","measure":"77.4825000000","navigation":"https://api.water.usgs.gov/nldi/linked-data/nwissite/USGS-03098350/navigation"}},{"type":"Feature","geometry":{"type":"Point","coordinates":[-82.1612478,37.19094335]},"properties":{"type":"hydrolocation","source":"nwissite","sourceName":"NWIS Surface Water Sites","identifier":"USGS-03208082","name":"PAWPAW CREEK ABOVE TOM FORK NEAR PRATER, VA","uri":"https://waterdata.usgs.gov/monitoring-location/03208082","comid":"1087893","reachcode":"05070202000514","measure":"57.1970000000","navigation":"https://api.water.usgs.gov/nldi/linked-data/nwissite/USGS-03208082/navigation"}},{"type":"Feature","geometry":{"type":"Point","coordinates":[-79.27865779,42.19394695]},"properties":{"type":"hydrolocation","source":"nwissite","sourceName":"NWIS Surface Water Sites","identifier":"USGS-03013088","name":"CASSADAGA CREEK TRIBUTARY 13 NEAR GERRY NY","uri":"https://waterdata.usgs.gov/monitoring-location/03013088","comid":"15444895","reachcode":"05010002000064","measure":"39.1395000000","navigation":"https://api.water.usgs.gov/nldi/linked-data/nwissite/USGS-03013088/navigation"}},{"type":"Feature","geometry":{"type":"Point","coordinates":[-79.3125,40.32238889]},"properties":{"type":"hydrolocation","source":"nwissite","sourceName":"NWIS Surface Water Sites","identifier":"USGS-03045100","name":"Saxman Run ab W Derry AMD (WDD-US) at Derry, PA","uri":"https://waterdata.usgs.gov/monitoring-location/03045100","comid":"4582434","reachcode":"05010008000164","measure":"85.0510000000","navigation":"https://api.water.usgs.gov/nldi/linked-data/nwissite/USGS-03045100/navigation"}},{"type":"Feature","geometry":{"type":"Point","coordinates":[-79.3128611,40.3223611]},"properties":{"type":"hydrolocation","source":"nwissite","sourceName":"NWIS Surface Water Sites","identifier":"USGS-03045110","name":"Saxman Run (WDD-mix) bl W Derry AMD at Derry, PA","uri":"https://waterdata.usgs.gov/monitoring-location/03045110","comid":"4582434","reachcode":"05010008000164","measure":"83.1766000000","navigation":"https://api.water.usgs.gov/nldi/linked-data/nwissite/USGS-03045110/navigation"}},{"type":"Feature","geometry":{"type":"Point","coordinates":[-80.19367338,41.4169993]},"properties":{"type":"hydrolocation","source":"nwissite","sourceName":"NWIS Surface Water Sites","identifier":"USGS-03102200","name":"Calven Clark Run Tributary near Sheakleyville, PA","uri":"https://waterdata.usgs.gov/monitoring-location/03102200","comid":"12999446","reachcode":"05030102000791","measure":"91.5804000000","navigation":"https://api.water.usgs.gov/nldi/linked-data/nwissite/USGS-03102200/navigation"}},{"type":"Feature","geometry":{"type":"Point","coordinates":[-81.5226209,38.35371014]},"properties":{"type":"hydrolocation","source":"nwissite","sourceName":"NWIS Surface Water Sites","identifier":"USGS-03197900","name":"ELK TWOMILE C TRIB NR CHARLESTON, WV","uri":"https://waterdata.usgs.gov/monitoring-location/03197900","comid":"19324771","reachcode":"05050007000519","measure":"41.6041000000","navigation":"https://api.water.usgs.gov/nldi/linked-data/nwissite/USGS-03197900/navigation"}},{"type":"Feature","geometry":{"type":"Point","coordinates":[-82.5732219,40.37145098]},"properties":{"type":"hydrolocation","source":"nwissite","sourceName":"NWIS Surface Water Sites","identifier":"USGS-03136564","name":"Dry Run near Bangs OH","uri":"https://waterdata.usgs.gov/monitoring-location/03136564","comid":"15401174","reachcode":"05040003000711","measure":"73.8080000000","navigation":"https://api.water.usgs.gov/nldi/linked-data/nwissite/USGS-03136564/navigation"}},{"type":"Feature","geometry":{"type":"Point","coordinates":[-79.555047,41.1547844]},"properties":{"type":"hydrolocation","source":"nwissite","sourceName":"NWIS Surface Water Sites","identifier":"USGS-03030850","name":"Unnamed Trib bl Beaver Creek nr Callensburg, PA","uri":"https://waterdata.usgs.gov/monitoring-location/03030850","comid":"6877319","reachcode":"05010005000007","measure":"69.7227000000","navigation":"https://api.water.usgs.gov/nldi/linked-data/nwissite/USGS-03030850/navigation"}},{"type":"Feature","geometry":{"type":"Point","coordinates":[-82.1615256,37.1912211]},"properties":{"type":"hydrolocation","source":"nwissite","sourceName":"NWIS Surface Water Sites","identifier":"USGS-03208083","name":"TOM FORK NEAR PRATER, VA","uri":"https://waterdata.usgs.gov/monitoring-location/03208083","comid":"1087893","reachcode":"05070202000514","measure":"57.1970000000","navigation":"https://api.water.usgs.gov/nldi/linked-data/nwissite/USGS-03208083/navigation"}},{"type":"Feature","geometry":{"type":"Point","coordinates":[-82.90489,38.3556368]},"properties":{"type":"hydrolocation","source":"nwissite","sourceName":"NWIS Surface Water Sites","identifier":"USGS-03216505","name":"BECKWITH BRANCH TRIBUTARY NEAR GRAYSON, KY","uri":"https://waterdata.usgs.gov/monitoring-location/03216505","comid":"1936728","reachcode":"05090104000628","measure":"86.4400000000","navigation":"https://api.water.usgs.gov/nldi/linked-data/nwissite/USGS-03216505/navigation"}},{"type":"Feature","geometry":{"type":"Point","coordinates":[-79.9181134,39.750078]},"properties":{"type":"hydrolocation","source":"nwissite","sourceName":"NWIS Surface Water Sites","identifier":"USGS-03071704","name":"Unnamed Tributary at Dilliner, PA","uri":"https://waterdata.usgs.gov/monitoring-location/03071704","comid":"3788143","reachcode":"05020005000311","measure":"65.8468000000","navigation":"https://api.water.usgs.gov/nldi/linked-data/nwissite/USGS-03071704/navigation"}},{"type":"Feature","geometry":{"type":"Point","coordinates":[-81.89151518,38.12620957]},"properties":{"type":"hydrolocation","source":"nwissite","sourceName":"NWIS Surface Water Sites","identifier":"USGS-380734081533001","name":"AK8-A-C LONG BRANCH NR MORRISVALE WV","uri":"https://waterdata.usgs.gov/monitoring-location/380734081533001","comid":"6928486","reachcode":"05050009000256","measure":"40.0413000000","navigation":"https://api.water.usgs.gov/nldi/linked-data/nwissite/USGS-380734081533001/navigation"}},{"type":"Feature","geometry":{"type":"Point","coordinates":[-79.666163,39.55064077]},"properties":{"type":"hydrolocation","source":"nwissite","sourceName":"NWIS Surface Water Sites","identifier":"USGS-393302079400201","name":"CA1-A-AbMARTIN CREEK TRIB NR VALLEY POINT WV","uri":"https://waterdata.usgs.gov/monitoring-location/393302079400201","comid":"3773805","reachcode":"05020004000697","measure":"64.8111000000","navigation":"https://api.water.usgs.gov/nldi/linked-data/nwissite/USGS-393302079400201/navigation"}},{"type":"Feature","geometry":{"type":"Point","coordinates":[-81.0556589,39.7822952]},"properties":{"type":"hydrolocation","source":"nwissite","sourceName":"NWIS Surface Water Sites","identifier":"USGS-03114240","name":"Wood Run near Woodsfield OH","uri":"https://waterdata.usgs.gov/monitoring-location/03114240","comid":"15430272","reachcode":"05030201001418","measure":"3.6543000000","navigation":"https://api.water.usgs.gov/nldi/linked-data/nwissite/USGS-03114240/navigation"}},{"type":"Feature","geometry":{"type":"Point","coordinates":[-79.5936545,39.78007629]},"properties":{"type":"hydrolocation","source":"nwissite","sourceName":"NWIS Surface Water Sites","identifier":"USGS-03070435","name":"Stony Fork Trib 4 (N OF DELTA SITE), PA","uri":"https://waterdata.usgs.gov/monitoring-location/03070435","comid":"3773293","reachcode":"05020004000630","measure":"0E-10","navigation":"https://api.water.usgs.gov/nldi/linked-data/nwissite/USGS-03070435/navigation"}},{"type":"Feature","geometry":{"type":"Point","coordinates":[-82.0706865,37.08122088]},"properties":{"type":"hydrolocation","source":"nwissite","sourceName":"NWIS Surface Water Sites","identifier":"USGS-0320804050","name":"RUSSELL FORK TRIB NO 1 AT COUNCIL, VA","uri":"https://waterdata.usgs.gov/monitoring-location/0320804050","comid":"1088505","reachcode":"05070202000911","measure":"12.6520000000","navigation":"https://api.water.usgs.gov/nldi/linked-data/nwissite/USGS-0320804050/navigation"}},{"type":"Feature","geometry":{"type":"Point","coordinates":[-82.6223781,37.1417701]},"properties":{"type":"hydrolocation","source":"nwissite","sourceName":"NWIS Surface Water Sites","identifier":"USGS-03208870","name":"BAD CREEK TRIB AT POUND, VA","uri":"https://waterdata.usgs.gov/monitoring-location/03208870","comid":"1088147","reachcode":"05070202000699","measure":"4.8777000000","navigation":"https://api.water.usgs.gov/nldi/linked-data/nwissite/USGS-03208870/navigation"}},{"type":"Feature","geometry":{"type":"Point","coordinates":[-81.41206119,38.3028795]},"properties":{"type":"hydrolocation","source":"nwissite","sourceName":"NWIS Surface Water Sites","identifier":"USGS-381810081244401","name":"Little Tenmile Fk of Cambells Ck nr Blount, WV","uri":"https://waterdata.usgs.gov/monitoring-location/381810081244401","comid":"6924449","reachcode":"05050006000137","measure":"69.2877000000","navigation":"https://api.water.usgs.gov/nldi/linked-data/nwissite/USGS-381810081244401/navigation"}},{"type":"Feature","geometry":{"type":"Point","coordinates":[-82.232362,37.09983]},"properties":{"type":"hydrolocation","source":"nwissite","sourceName":"NWIS Surface Water Sites","identifier":"USGS-032081044","name":"BIG YELLOW LICK BRANCH AT MOUTH NEAR MURPHY, VA","uri":"https://waterdata.usgs.gov/monitoring-location/032081044","comid":"1088407","reachcode":"05070202000878","measure":"0E-10","navigation":"https://api.water.usgs.gov/nldi/linked-data/nwissite/USGS-032081044/navigation"}},{"type":"Feature","geometry":{"type":"Point","coordinates":[-81.2773305,38.054553]},"properties":{"type":"hydrolocation","source":"nwissite","sourceName":"NWIS Surface Water Sites","identifier":"USGS-380316081163901","name":"Molly Kincaid Br. @ Page, WV","uri":"https://waterdata.usgs.gov/monitoring-location/380316081163901","comid":"6925017","reachcode":"05050006000268","measure":"44.1015000000","navigation":"https://api.water.usgs.gov/nldi/linked-data/nwissite/USGS-380316081163901/navigation"}},{"type":"Feature","geometry":{"type":"Point","coordinates":[-82.2684743,37.00732786]},"properties":{"type":"hydrolocation","source":"nwissite","sourceName":"NWIS Surface Water Sites","identifier":"USGS-03208328","name":"KNOT HOLLOW CREEK NEAR TRAMMEL, VA","uri":"https://waterdata.usgs.gov/monitoring-location/03208328","comid":"1088873","reachcode":"05070202000814","measure":"87.7817000000","navigation":"https://api.water.usgs.gov/nldi/linked-data/nwissite/USGS-03208328/navigation"}},{"type":"Feature","geometry":{"type":"Point","coordinates":[-79.9970229,39.12482138]},"properties":{"type":"hydrolocation","source":"nwissite","sourceName":"NWIS Surface Water Sites","identifier":"USGS-03055020","name":"BONICA RUN ON US HWY 250 NR PHILLIPI, WV","uri":"https://waterdata.usgs.gov/monitoring-location/03055020","comid":"4351084","reachcode":"05020001000408","measure":"72.4353000000","navigation":"https://api.water.usgs.gov/nldi/linked-data/nwissite/USGS-03055020/navigation"}},{"type":"Feature","geometry":{"type":"Point","coordinates":[-82.1381907,37.1464985]},"properties":{"type":"hydrolocation","source":"nwissite","sourceName":"NWIS Surface Water Sites","identifier":"USGS-0320807350","name":"JACKSON FORK NEAR MURPHY, VA","uri":"https://waterdata.usgs.gov/monitoring-location/0320807350","comid":"1088183","reachcode":"05070202000503","measure":"74.6795000000","navigation":"https://api.water.usgs.gov/nldi/linked-data/nwissite/USGS-0320807350/navigation"}},{"type":"Feature","geometry":{"type":"Point","coordinates":[-82.233751,37.1048301]},"properties":{"type":"hydrolocation","source":"nwissite","sourceName":"NWIS Surface Water Sites","identifier":"USGS-032081046","name":"LITTLE YELLOW LICK BRANCH AT MOUTH NR MURPHY, VA","uri":"https://waterdata.usgs.gov/monitoring-location/032081046","comid":"1088369","reachcode":"05070202000879","measure":"0E-10","navigation":"https://api.water.usgs.gov/nldi/linked-data/nwissite/USGS-032081046/navigation"}},{"type":"Feature","geometry":{"type":"Point","coordinates":[-81.5670508,37.42955809]},"properties":{"type":"hydrolocation","source":"nwissite","sourceName":"NWIS Surface Water Sites","identifier":"USGS-03212703","name":"ELKHORN CREEK TRIBUTARY AT WELCH, WV","uri":"https://waterdata.usgs.gov/monitoring-location/03212703","comid":"436136","reachcode":"05070201000403","measure":"57.5092000000","navigation":"https://api.water.usgs.gov/nldi/linked-data/nwissite/USGS-03212703/navigation"}},{"type":"Feature","geometry":{"type":"Point","coordinates":[-81.5670508,37.4292803]},"properties":{"type":"hydrolocation","source":"nwissite","sourceName":"NWIS Surface Water Sites","identifier":"USGS-372545081340201","name":"NR3-R-MT ELKHORN CREEK TRIB AT WELCH WV","uri":"https://waterdata.usgs.gov/monitoring-location/372545081340201","comid":"436136","reachcode":"05070201000403","measure":"57.5092000000","navigation":"https://api.water.usgs.gov/nldi/linked-data/nwissite/USGS-372545081340201/navigation"}},{"type":"Feature","geometry":{"type":"Point","coordinates":[-79.3483788,42.30478025]},"properties":{"type":"hydrolocation","source":"nwissite","sourceName":"NWIS Surface Water Sites","identifier":"USGS-03013063","name":"BEAR LAKE OUTLET TRIBUTARY 5 AT STOCKTON NY","uri":"https://waterdata.usgs.gov/monitoring-location/03013063","comid":"15444797","reachcode":"05010002000259","measure":"45.6858000000","navigation":"https://api.water.usgs.gov/nldi/linked-data/nwissite/USGS-03013063/navigation"}},{"type":"Feature","geometry":{"type":"Point","coordinates":[-82.5790439,37.16399375]},"properties":{"type":"hydrolocation","source":"nwissite","sourceName":"NWIS Surface Water Sites","identifier":"USGS-03208876","name":"L F BEARPEN CREEK NEAR POUND, VA","uri":"https://waterdata.usgs.gov/monitoring-location/03208876","comid":"1088017","reachcode":"05070202000693","measure":"4.3853000000","navigation":"https://api.water.usgs.gov/nldi/linked-data/nwissite/USGS-03208876/navigation"}},{"type":"Feature","geometry":{"type":"Point","coordinates":[-80.1806223,39.80091044]},"properties":{"type":"hydrolocation","source":"nwissite","sourceName":"NWIS Surface Water Sites","identifier":"USGS-03072660","name":"Whiteley Creek near Oak Forest, PA","uri":"https://waterdata.usgs.gov/monitoring-location/03072660","comid":"3789071","reachcode":"05020005000241","measure":"64.0174000000","navigation":"https://api.water.usgs.gov/nldi/linked-data/nwissite/USGS-03072660/navigation"}},{"type":"Feature","geometry":{"type":"Point","coordinates":[-82.180971,37.18177639]},"properties":{"type":"hydrolocation","source":"nwissite","sourceName":"NWIS Surface Water Sites","identifier":"USGS-03208085","name":"SHE BRANCH NEAR PRATER, VA","uri":"https://waterdata.usgs.gov/monitoring-location/03208085","comid":"1087945","reachcode":"05070202000936","measure":"0.7030000000","navigation":"https://api.water.usgs.gov/nldi/linked-data/nwissite/USGS-03208085/navigation"}},{"type":"Feature","geometry":{"type":"Point","coordinates":[-79.2922671,42.30561365]},"properties":{"type":"hydrolocation","source":"nwissite","sourceName":"NWIS Surface Water Sites","identifier":"USGS-03013044","name":"CASSADAGA CREEK TRIBUTARY 4 NEAR PICKETT CORNERS","uri":"https://waterdata.usgs.gov/monitoring-location/03013044","comid":"15444803","reachcode":"05010002000076","measure":"80.2942000000","navigation":"https://api.water.usgs.gov/nldi/linked-data/nwissite/USGS-03013044/navigation"}},{"type":"Feature","geometry":{"type":"Point","coordinates":[-78.64113598,41.31922748]},"properties":{"type":"hydrolocation","source":"nwissite","sourceName":"NWIS Surface Water Sites","identifier":"USGS-03029135","name":"Trib to Little Toby Creek at Kylers Corners, PA","uri":"https://waterdata.usgs.gov/monitoring-location/03029135","comid":"6875273","reachcode":"05010005000961","measure":"8.2018000000","navigation":"https://api.water.usgs.gov/nldi/linked-data/nwissite/USGS-03029135/navigation"}},{"type":"Feature","geometry":{"type":"Point","coordinates":[-82.30903989,39.3653482]},"properties":{"type":"hydrolocation","source":"nwissite","sourceName":"NWIS Surface Water Sites","identifier":"USGS-392155082183300","name":"SANDY RN AB LAKE HOPE OH","uri":"https://waterdata.usgs.gov/monitoring-location/392155082183300","comid":"3366394","reachcode":"05090101001115","measure":"24.9403000000","navigation":"https://api.water.usgs.gov/nldi/linked-data/nwissite/USGS-392155082183300/navigation"}},{"type":"Feature","geometry":{"type":"Point","coordinates":[-82.5782105,37.16399377]},"properties":{"type":"hydrolocation","source":"nwissite","sourceName":"NWIS Surface Water Sites","identifier":"USGS-03208874","name":"R F BEARPEN CREEK NEAR POUND, VA","uri":"https://waterdata.usgs.gov/monitoring-location/03208874","comid":"1088015","reachcode":"05070202000692","measure":"1.1836000000","navigation":"https://api.water.usgs.gov/nldi/linked-data/nwissite/USGS-03208874/navigation"}},{"type":"Feature","geometry":{"type":"Point","coordinates":[-79.207,40.10516667]},"properties":{"type":"hydrolocation","source":"nwissite","sourceName":"NWIS Surface Water Sites","identifier":"USGS-03079387","name":"Clear Run above PA Turnpike near Roytown, PA","uri":"https://waterdata.usgs.gov/monitoring-location/03079387","comid":"3805379","reachcode":"05020006001049","measure":"29.7987000000","navigation":"https://api.water.usgs.gov/nldi/linked-data/nwissite/USGS-03079387/navigation"}},{"type":"Feature","geometry":{"type":"Point","coordinates":[-78.9383617,40.55923528]},"properties":{"type":"hydrolocation","source":"nwissite","sourceName":"NWIS Surface Water Sites","identifier":"USGS-03042198","name":"Little Yellow Creek Tributary at Strongstown, PA","uri":"https://waterdata.usgs.gov/monitoring-location/03042198","comid":"4751546","reachcode":"05010007000509","measure":"30.2331000000","navigation":"https://api.water.usgs.gov/nldi/linked-data/nwissite/USGS-03042198/navigation"}},{"type":"Feature","geometry":{"type":"Point","coordinates":[-79.9228305,39.8889649]},"properties":{"type":"hydrolocation","source":"nwissite","sourceName":"NWIS Surface Water Sites","identifier":"USGS-03072765","name":"Pegs Run at Nemacolin, PA","uri":"https://waterdata.usgs.gov/monitoring-location/03072765","comid":"3788055","reachcode":"05020005000899","measure":"6.1667000000","navigation":"https://api.water.usgs.gov/nldi/linked-data/nwissite/USGS-03072765/navigation"}},{"type":"Feature","geometry":{"type":"Point","coordinates":[-78.6155797,41.34450536]},"properties":{"type":"hydrolocation","source":"nwissite","sourceName":"NWIS Surface Water Sites","identifier":"USGS-03029125","name":"Little Toby Creek at Dagus Mines, PA","uri":"https://waterdata.usgs.gov/monitoring-location/03029125","comid":"6875227","reachcode":"05010005000061","measure":"56.7533000000","navigation":"https://api.water.usgs.gov/nldi/linked-data/nwissite/USGS-03029125/navigation"}},{"type":"Feature","geometry":{"type":"Point","coordinates":[-80.95063629,36.9390094]},"properties":{"type":"hydrolocation","source":"nwissite","sourceName":"NWIS Surface Water Sites","identifier":"USGS-03166770","name":"REED CREEK TRIB TRIB NEAR MAX MEADOWS, VA","uri":"https://waterdata.usgs.gov/monitoring-location/03166770","comid":"6885466","reachcode":"05050001002520","measure":"51.6092000000","navigation":"https://api.water.usgs.gov/nldi/linked-data/nwissite/USGS-03166770/navigation"}},{"type":"Feature","geometry":{"type":"Point","coordinates":[-82.5165479,39.137572]},"properties":{"type":"hydrolocation","source":"nwissite","sourceName":"NWIS Surface Water Sites","identifier":"USGS-390815082310000","name":"LAKE ALMA AB DAM (L-1) NR HAMDEN OH","uri":"https://waterdata.usgs.gov/monitoring-location/390815082310000","comid":"3367048","reachcode":"05090101000558","measure":"0E-10","navigation":"https://api.water.usgs.gov/nldi/linked-data/nwissite/USGS-390815082310000/navigation"}},{"type":"Feature","geometry":{"type":"Point","coordinates":[-78.69168628,40.4681274]},"properties":{"type":"hydrolocation","source":"nwissite","sourceName":"NWIS Surface Water Sites","identifier":"USGS-03040095","name":"North Branch Tributary near Ebensburg, PA","uri":"https://waterdata.usgs.gov/monitoring-location/03040095","comid":"4752622","reachcode":"05010007000882","measure":"44.9559000000","navigation":"https://api.water.usgs.gov/nldi/linked-data/nwissite/USGS-03040095/navigation"}},{"type":"Feature","geometry":{"type":"Point","coordinates":[-79.19138889,40.05888889]},"properties":{"type":"hydrolocation","source":"nwissite","sourceName":"NWIS Surface Water Sites","identifier":"USGS-03079418","name":"Shanks Run above Confluence near Bakersville, PA","uri":"https://waterdata.usgs.gov/monitoring-location/03079418","comid":"3805551","reachcode":"05020006001050","measure":"17.2405000000","navigation":"https://api.water.usgs.gov/nldi/linked-data/nwissite/USGS-03079418/navigation"}},{"type":"Feature","geometry":{"type":"Point","coordinates":[-80.1136689,39.97674045]},"properties":{"type":"hydrolocation","source":"nwissite","sourceName":"NWIS Surface Water Sites","identifier":"USGS-03073014","name":"Castile Run near Clarksville, PA","uri":"https://waterdata.usgs.gov/monitoring-location/03073014","comid":"3788387","reachcode":"05020005000375","measure":"51.4629000000","navigation":"https://api.water.usgs.gov/nldi/linked-data/nwissite/USGS-03073014/navigation"}},{"type":"Feature","geometry":{"type":"Point","coordinates":[-82.1131887,37.0706646]},"properties":{"type":"hydrolocation","source":"nwissite","sourceName":"NWIS Surface Water Sites","identifier":"USGS-0320806200","name":"PUNCHEON CAMP BRANCH NEAR COUNCIL, VA","uri":"https://waterdata.usgs.gov/monitoring-location/0320806200","comid":"1088677","reachcode":"05070202000899","measure":"0E-10","navigation":"https://api.water.usgs.gov/nldi/linked-data/nwissite/USGS-0320806200/navigation"}},{"type":"Feature","geometry":{"type":"Point","coordinates":[-79.3419903,42.25672485]},"properties":{"type":"hydrolocation","source":"nwissite","sourceName":"NWIS Surface Water Sites","identifier":"USGS-03013066","name":"CASSADAGA CREEK TRIBUTARY 7 AT CENTRALIA NY","uri":"https://waterdata.usgs.gov/monitoring-location/03013066","comid":"15445083","reachcode":"05010002000266","measure":"39.5596000000","navigation":"https://api.water.usgs.gov/nldi/linked-data/nwissite/USGS-03013066/navigation"}},{"type":"Feature","geometry":{"type":"Point","coordinates":[-80.1717367,38.3212277]},"properties":{"type":"hydrolocation","source":"nwissite","sourceName":"NWIS Surface Water Sites","identifier":"USGS-381916080101901","name":"Noname Trib of Little Laurel Ck","uri":"https://waterdata.usgs.gov/monitoring-location/381916080101901","comid":"4546204","reachcode":"05050005000870","measure":"82.0885000000","navigation":"https://api.water.usgs.gov/nldi/linked-data/nwissite/USGS-381916080101901/navigation"}},{"type":"Feature","geometry":{"type":"Point","coordinates":[-79.279768,42.240336]},"properties":{"type":"hydrolocation","source":"nwissite","sourceName":"NWIS Surface Water Sites","identifier":"USGS-0301307405","name":"SINCLAIR BROOK AT MOUTH NEAR REDBIRD NY","uri":"https://waterdata.usgs.gov/monitoring-location/0301307405","comid":"15445089","reachcode":"05010002000248","measure":"11.3784000000","navigation":"https://api.water.usgs.gov/nldi/linked-data/nwissite/USGS-0301307405/navigation"}},{"type":"Feature","geometry":{"type":"Point","coordinates":[-80.916468,36.83817899]},"properties":{"type":"hydrolocation","source":"nwissite","sourceName":"NWIS Surface Water Sites","identifier":"USGS-03166100","name":"BUDDLE BRANCH ALONG RT 636 NR AUSTINVILLE, VA","uri":"https://waterdata.usgs.gov/monitoring-location/03166100","comid":"6886144","reachcode":"05050001000874","measure":"52.3123000000","navigation":"https://api.water.usgs.gov/nldi/linked-data/nwissite/USGS-03166100/navigation"}},{"type":"Feature","geometry":{"type":"Point","coordinates":[-79.1922683,42.13672515]},"properties":{"type":"hydrolocation","source":"nwissite","sourceName":"NWIS Surface Water Sites","identifier":"USGS-0301332005","name":"CASSADAGA CREEK TRIB 18 AT MOUTH AT LEVANT NY","uri":"https://waterdata.usgs.gov/monitoring-location/0301332005","comid":"15444929","reachcode":"05010002000061","measure":"24.9961000000","navigation":"https://api.water.usgs.gov/nldi/linked-data/nwissite/USGS-0301332005/navigation"}},{"type":"Feature","geometry":{"type":"Point","coordinates":[-79.5103236,41.11645167]},"properties":{"type":"hydrolocation","source":"nwissite","sourceName":"NWIS Surface Water Sites","identifier":"USGS-03030870","name":"Unnamed Tributary to Licking Creek at Sligo, PA","uri":"https://waterdata.usgs.gov/monitoring-location/03030870","comid":"6876859","reachcode":"05010005001174","measure":"4.8689000000","navigation":"https://api.water.usgs.gov/nldi/linked-data/nwissite/USGS-03030870/navigation"}},{"type":"Feature","geometry":{"type":"Point","coordinates":[-79.6389321,39.84618709]},"properties":{"type":"hydrolocation","source":"nwissite","sourceName":"NWIS Surface Water Sites","identifier":"USGS-03070400","name":"Big Sandy Creek near Chalkhill, PA","uri":"https://waterdata.usgs.gov/monitoring-location/03070400","comid":"3773225","reachcode":"05020004000640","measure":"89.0488000000","navigation":"https://api.water.usgs.gov/nldi/linked-data/nwissite/USGS-03070400/navigation"}},{"type":"Feature","geometry":{"type":"Point","coordinates":[-80.4535,37.5190833]},"properties":{"type":"hydrolocation","source":"nwissite","sourceName":"NWIS Surface Water Sites","identifier":"USGS-373109080271301","name":"Turkey Creek headwaters near McGlone, WV","uri":"https://waterdata.usgs.gov/monitoring-location/373109080271301","comid":"6906255","reachcode":"05050002000665","measure":"0E-10","navigation":"https://api.water.usgs.gov/nldi/linked-data/nwissite/USGS-373109080271301/navigation"}},{"type":"Feature","geometry":{"type":"Point","coordinates":[-81.929865,40.74589025]},"properties":{"type":"hydrolocation","source":"nwissite","sourceName":"NWIS Surface Water Sites","identifier":"USGS-03138900","name":"Jennings Ditch tributary near Wooster OH","uri":"https://waterdata.usgs.gov/monitoring-location/03138900","comid":"15397752","reachcode":"05040003000986","measure":"27.7731000000","navigation":"https://api.water.usgs.gov/nldi/linked-data/nwissite/USGS-03138900/navigation"}},{"type":"Feature","geometry":{"type":"Point","coordinates":[-79.3072675,42.288947]},"properties":{"type":"hydrolocation","source":"nwissite","sourceName":"NWIS Surface Water Sites","identifier":"USGS-0301304705","name":"CASSADAGA CREEK TRIBUTARY 6 AT MOUTH AT KABOB","uri":"https://waterdata.usgs.gov/monitoring-location/0301304705","comid":"15444803","reachcode":"05010002000076","measure":"28.6110000000","navigation":"https://api.water.usgs.gov/nldi/linked-data/nwissite/USGS-0301304705/navigation"}},{"type":"Feature","geometry":{"type":"Point","coordinates":[-81.7180556,36.28027778]},"properties":{"type":"hydrolocation","source":"nwissite","sourceName":"NWIS Surface Water Sites","identifier":"USGS-0316030626","name":"HOWARD CREEK TRIB NEAR SANDS, NC","uri":"https://waterdata.usgs.gov/monitoring-location/0316030626","comid":"6891952","reachcode":"05050001002717","measure":"8.1449000000","navigation":"https://api.water.usgs.gov/nldi/linked-data/nwissite/USGS-0316030626/navigation"}},{"type":"Feature","geometry":{"type":"Point","coordinates":[-80.3366667,39.8258333]},"properties":{"type":"hydrolocation","source":"nwissite","sourceName":"NWIS Surface Water Sites","identifier":"USGS-030728566","name":"Unnamed Trib to Garner Run at Jackson Township, PA","uri":"https://waterdata.usgs.gov/monitoring-location/030728566","comid":"3789661","reachcode":"05020005001423","measure":"0.6439000000","navigation":"https://api.water.usgs.gov/nldi/linked-data/nwissite/USGS-030728566/navigation"}},{"type":"Feature","geometry":{"type":"Point","coordinates":[-79.2753245,42.19228028]},"properties":{"type":"hydrolocation","source":"nwissite","sourceName":"NWIS Surface Water Sites","identifier":"USGS-0301309005","name":"CASSADAGA CREEK TRIB 14 AT MOUTH NEAR GERRY NY","uri":"https://waterdata.usgs.gov/monitoring-location/0301309005","comid":"15444895","reachcode":"05010002000064","measure":"34.5463000000","navigation":"https://api.water.usgs.gov/nldi/linked-data/nwissite/USGS-0301309005/navigation"}},{"type":"Feature","geometry":{"type":"Point","coordinates":[-81.27563889,39.2101111]},"properties":{"type":"hydrolocation","source":"nwissite","sourceName":"NWIS Surface Water Sites","identifier":"USGS-391236081163201","name":"OIL SPRING RUN NEAR PETROLEUM, WV","uri":"https://waterdata.usgs.gov/monitoring-location/391236081163201","comid":"19414233","reachcode":"05030203001470","measure":"54.7179000000","navigation":"https://api.water.usgs.gov/nldi/linked-data/nwissite/USGS-391236081163201/navigation"}},{"type":"Feature","geometry":{"type":"Point","coordinates":[-82.1270782,37.05621978]},"properties":{"type":"hydrolocation","source":"nwissite","sourceName":"NWIS Surface Water Sites","identifier":"USGS-0320806280","name":"JOHNS FORK NEAR CANE GAP NEAR DUTY, VA","uri":"https://waterdata.usgs.gov/monitoring-location/0320806280","comid":"1088723","reachcode":"05070202000897","measure":"8.6307000000","navigation":"https://api.water.usgs.gov/nldi/linked-data/nwissite/USGS-0320806280/navigation"}},{"type":"Feature","geometry":{"type":"Point","coordinates":[-82.5268206,37.1351054]},"properties":{"type":"hydrolocation","source":"nwissite","sourceName":"NWIS Surface Water Sites","identifier":"USGS-0320890450","name":"GEORGES FORK AT KEN-MAC NEAR GEORGES FORK, VA","uri":"https://waterdata.usgs.gov/monitoring-location/0320890450","comid":"1089025","reachcode":"05070202000488","measure":"69.5722000000","navigation":"https://api.water.usgs.gov/nldi/linked-data/nwissite/USGS-0320890450/navigation"}},{"type":"Feature","geometry":{"type":"Point","coordinates":[-81.4659555,39.4734072]},"properties":{"type":"hydrolocation","source":"nwissite","sourceName":"NWIS Surface Water Sites","identifier":"USGS-03150600","name":"Tupper Creek at Devola OH","uri":"https://waterdata.usgs.gov/monitoring-location/03150600","comid":"15385081","reachcode":"05040004001898","measure":"9.3179000000","navigation":"https://api.water.usgs.gov/nldi/linked-data/nwissite/USGS-03150600/navigation"}},{"type":"Feature","geometry":{"type":"Point","coordinates":[-79.26587888,42.2461694]},"properties":{"type":"hydrolocation","source":"nwissite","sourceName":"NWIS Surface Water Sites","identifier":"USGS-03013073","name":"DAMON BROOK AT SINCLAIRVILLE NY","uri":"https://waterdata.usgs.gov/monitoring-location/03013073","comid":"15445089","reachcode":"05010002000248","measure":"41.2637000000","navigation":"https://api.water.usgs.gov/nldi/linked-data/nwissite/USGS-03013073/navigation"}},{"type":"Feature","geometry":{"type":"Point","coordinates":[-79.3631012,42.305058]},"properties":{"type":"hydrolocation","source":"nwissite","sourceName":"NWIS Surface Water Sites","identifier":"USGS-0301306135","name":"FLAG CREEK TRIB AT MOUTH AT STOCKTON NY","uri":"https://waterdata.usgs.gov/monitoring-location/0301306135","comid":"15444791","reachcode":"05010002000263","measure":"0E-10","navigation":"https://api.water.usgs.gov/nldi/linked-data/nwissite/USGS-0301306135/navigation"}},{"type":"Feature","geometry":{"type":"Point","coordinates":[-78.699749,41.46895035]},"properties":{"type":"hydrolocation","source":"nwissite","sourceName":"NWIS Surface Water Sites","identifier":"USGS-03028530","name":"Riley Run near Johnsonburg, PA","uri":"https://waterdata.usgs.gov/monitoring-location/03028530","comid":"6875691","reachcode":"05010005000895","measure":"0E-10","navigation":"https://api.water.usgs.gov/nldi/linked-data/nwissite/USGS-03028530/navigation"}},{"type":"Feature","geometry":{"type":"Point","coordinates":[-82.15541318,37.0670528]},"properties":{"type":"hydrolocation","source":"nwissite","sourceName":"NWIS Surface Water Sites","identifier":"USGS-0320806640","name":"LEFT FORK ABOVE TILLER FORK NEAR DUTY, VA","uri":"https://waterdata.usgs.gov/monitoring-location/0320806640","comid":"1088683","reachcode":"05070202000894","measure":"6.0450000000","navigation":"https://api.water.usgs.gov/nldi/linked-data/nwissite/USGS-0320806640/navigation"}},{"type":"Feature","geometry":{"type":"Point","coordinates":[-82.3182071,39.48256867]},"properties":{"type":"hydrolocation","source":"nwissite","sourceName":"NWIS Surface Water Sites","identifier":"USGS-03158100","name":"Hayden Run near Haydenville OH","uri":"https://waterdata.usgs.gov/monitoring-location/03158100","comid":"15420609","reachcode":"05030204000805","measure":"26.8744000000","navigation":"https://api.water.usgs.gov/nldi/linked-data/nwissite/USGS-03158100/navigation"}},{"type":"Feature","geometry":{"type":"Point","coordinates":[-82.047918,38.64425177]},"properties":{"type":"hydrolocation","source":"nwissite","sourceName":"NWIS Surface Water Sites","identifier":"USGS-03201440","name":"SIXTEENMILE CREEK NR PLINY, WV","uri":"https://waterdata.usgs.gov/monitoring-location/03201440","comid":"19314516","reachcode":"05050008000303","measure":"10.8765000000","navigation":"https://api.water.usgs.gov/nldi/linked-data/nwissite/USGS-03201440/navigation"}},{"type":"Feature","geometry":{"type":"Point","coordinates":[-80.5380556,37.53369444]},"properties":{"type":"hydrolocation","source":"nwissite","sourceName":"NWIS Surface Water Sites","identifier":"USGS-373201080321701","name":"Unnamed trib to Turkey creek at Willow Bend, WV","uri":"https://waterdata.usgs.gov/monitoring-location/373201080321701","comid":"6906143","reachcode":"05050002000661","measure":"89.5136000000","navigation":"https://api.water.usgs.gov/nldi/linked-data/nwissite/USGS-373201080321701/navigation"}},{"type":"Feature","geometry":{"type":"Point","coordinates":[-80.9003553,36.6773497]},"properties":{"type":"hydrolocation","source":"nwissite","sourceName":"NWIS Surface Water Sites","identifier":"USGS-03165200","name":"MILL CREEK TRIB AT GALAX, VA","uri":"https://waterdata.usgs.gov/monitoring-location/03165200","comid":"6886740","reachcode":"05050001001555","measure":"19.2458000000","navigation":"https://api.water.usgs.gov/nldi/linked-data/nwissite/USGS-03165200/navigation"}},{"type":"Feature","geometry":{"type":"Point","coordinates":[-79.5956115,38.8820545]},"properties":{"type":"hydrolocation","source":"nwissite","sourceName":"NWIS Surface Water Sites","identifier":"USGS-03063950","name":"JOB RUN NEAR WYMER, WV","uri":"https://waterdata.usgs.gov/monitoring-location/03063950","comid":"3776631","reachcode":"05020004000990","measure":"14.0549000000","navigation":"https://api.water.usgs.gov/nldi/linked-data/nwissite/USGS-03063950/navigation"}},{"type":"Feature","geometry":{"type":"Point","coordinates":[-80.1739522,39.89063086]},"properties":{"type":"hydrolocation","source":"nwissite","sourceName":"NWIS Surface Water Sites","identifier":"USGS-03072925","name":"Sugar Run at Waynesburg, PA","uri":"https://waterdata.usgs.gov/monitoring-location/03072925","comid":"3788793","reachcode":"05020005001446","measure":"16.1459000000","navigation":"https://api.water.usgs.gov/nldi/linked-data/nwissite/USGS-03072925/navigation"}},{"type":"Feature","geometry":{"type":"Point","coordinates":[-83.2029556,38.3359137]},"properties":{"type":"hydrolocation","source":"nwissite","sourceName":"NWIS Surface Water Sites","identifier":"USGS-03216901","name":"TROUGH CAMP CREEK TRIBUTARY NEAR OLIVE HILL, KY","uri":"https://waterdata.usgs.gov/monitoring-location/03216901","comid":"466968","reachcode":"05090103001067","measure":"12.5567000000","navigation":"https://api.water.usgs.gov/nldi/linked-data/nwissite/USGS-03216901/navigation"}},{"type":"Feature","geometry":{"type":"Point","coordinates":[-82.17263678,37.1242756]},